City_ID,City,Lat,Lng,Max Temp,Humidity,Cloudiness,Wind Speed,Country,Date
0,hermanus,-34.4187,19.2345,17.11,86,99,5.37,ZA,1678057346
1,hithadhoo,-0.6,73.0833,27.49,73,93,2.06,MV,1678057347
2,ushuaia,-54.8,-68.3,5.81,93,100,3.09,AR,1678057226
3,necochea,-38.5473,-58.7368,26.8,42,0,4.69,AR,1678057350
4,rikitea,-23.1203,-134.9692,26.67,73,100,9.79,PF,1678057351
5,edgewater,28.9889,-80.9023,26.74,78,20,2.57,US,1678057351
6,bluff,-46.6,168.3333,14.89,62,31,1.99,NZ,1678057352
7,guerrero negro,27.9769,-114.0611,15.68,61,99,8.88,MX,1678057352
8,arraial do cabo,-22.9661,-42.0278,24.98,83,75,5.66,BR,1678057353
9,bafra,41.5678,35.9069,12.62,93,100,3.89,TR,1678057354
10,saint george,37.1041,-113.5841,13.47,28,0,6.26,US,1678057200
11,atuona,-9.8,-139.0333,26.91,79,13,6.85,PF,1678057355
12,leningradskiy,69.3833,178.4167,-21.27,95,100,4.29,RU,1678057355
13,san andres,12.5847,-81.7006,29.01,70,20,6.17,CO,1678057356
14,parati,-23.2178,-44.7131,23.91,98,99,2.82,BR,1678057356
15,ndago,-4.6,34.35,17.19,79,86,1.96,TZ,1678057356
16,komsomolskiy,40.4272,71.7189,8.4,76,100,1.03,UZ,1678057357
17,qaanaaq,77.484,-69.3632,-3.36,72,100,2.04,GL,1678057358
18,sao filipe,14.8961,-24.4956,23.01,66,100,3.01,CV,1678057358
19,whitianga,-36.8333,175.7,16.9,91,98,4.59,NZ,1678057359
20,rio gallegos,-51.6226,-69.2181,10.03,76,75,8.75,AR,1678057259
21,cidreira,-30.1811,-50.2056,22.81,90,100,6.56,BR,1678057360
22,taree,-31.9,152.4667,31.7,61,12,2.18,AU,1678057361
23,jamestown,42.097,-79.2353,2.79,85,100,6.17,US,1678057220
24,tezu,27.9167,96.1667,20.73,40,64,1.41,IN,1678057361
25,mataura,-46.1927,168.8643,14.71,49,30,1.66,NZ,1678057362
26,castro,-24.7911,-50.0119,18.1,94,23,1.75,BR,1678057363
27,hobart,-42.8794,147.3294,19.59,74,40,6.69,AU,1678057222
28,portland,45.5234,-122.6762,8.1,79,100,3.09,US,1678057045
29,canmore,51.0834,-115.3521,-8.29,48,100,4.12,CA,1678057271
30,los llanos de aridane,28.6585,-17.9182,15.86,85,0,3.6,ES,1678057364
31,albany,42.6001,-73.9662,4.17,74,90,1.34,US,1678057364
32,miramar,25.9873,-80.2323,28.34,65,0,4.12,US,1678057365
33,tuktoyaktuk,69.4541,-133.0374,-31.0,76,0,1.54,CA,1678057365
34,new norfolk,-42.7826,147.0587,19.4,71,86,3.13,AU,1678057366
35,lavrentiya,65.5833,-171.0,0.18,98,100,6.6,RU,1678057366
36,moranbah,-22.0016,148.0466,25.42,65,10,6.27,AU,1678057366
37,umm kaddadah,13.6017,26.6876,24.05,19,1,5.63,SD,1678057367
38,bredasdorp,-34.5322,20.0403,18.77,84,99,5.05,ZA,1678057368
39,sham churasi,31.4997,75.7494,14.71,47,0,1.12,IN,1678057368
40,colares,38.7992,-9.4469,13.27,90,47,3.58,PT,1678057369
41,edd,13.9297,41.6925,28.08,38,0,8.47,ER,1678057370
42,carnarvon,-24.8667,113.6333,24.83,64,1,8.15,AU,1678057370
43,faanui,-16.4833,-151.75,28.64,72,93,7.98,PF,1678057371
44,puerto ayora,-0.7393,-90.3518,28.98,91,51,1.34,EC,1678057371
45,altagracia de orituco,9.8601,-66.3814,26.01,63,64,3.35,VE,1678057372
46,nikolskoye,59.7035,30.7861,-4.01,99,100,1.16,RU,1678057372
47,mitsamiouli,-11.3847,43.2844,27.55,74,100,5.34,KM,1678057373
48,vallenar,-28.5708,-70.7581,25.24,48,27,2.59,CL,1678057280
49,kudahuvadhoo,2.6708,72.8944,26.83,77,91,4.49,MV,1678057374
50,olafsvik,64.8945,-23.7142,-0.56,62,4,9.77,IS,1678057374
51,muravlenko,63.7898,74.523,-19.84,100,100,4.15,RU,1678057374
52,mega,4.05,38.3,18.62,42,16,8.87,ET,1678057375
53,upernavik,72.7868,-56.1549,-4.41,75,79,1.56,GL,1678057376
54,innisfail,-17.5333,146.0333,24.33,96,100,4.45,AU,1678057376
55,esil,51.9556,66.4042,-3.97,92,68,9.35,KZ,1678057377
56,talnakh,69.4865,88.3972,-26.0,97,100,2.9,RU,1678057377
57,marathon,44.9,-89.7668,5.74,37,40,5.14,US,1678057377
58,busselton,-33.65,115.3333,14.49,85,3,3.26,AU,1678057378
59,port blair,11.6667,92.75,25.61,70,0,3.34,IN,1678057378
60,dikson,73.5069,80.5464,-33.46,99,67,2.18,RU,1678057379
61,chuy,-33.6971,-53.4616,20.15,81,0,3.47,UY,1678057380
62,luderitz,-26.6481,15.1594,16.71,91,0,4.64,NA,1678057380
63,sahuaripa,29.05,-109.2333,28.34,10,10,3.75,MX,1678057283
64,avarua,-21.2078,-159.775,30.03,79,75,7.72,CK,1678057381
65,sitka,57.0531,-135.33,-1.46,54,0,3.36,US,1678057382
66,hilo,19.7297,-155.09,25.71,83,13,2.24,US,1678057206
67,kavieng,-2.5744,150.7967,27.77,71,100,1.3,PG,1678057383
68,kapaa,22.0752,-159.319,25.99,85,63,0.45,US,1678057383
69,iqaluit,63.7506,-68.5145,-4.15,85,100,0.0,CA,1678057383
70,punta arenas,-53.15,-70.9167,10.06,62,75,9.26,CL,1678057384
71,provideniya,64.3833,-173.3,1.06,80,100,6.0,RU,1678057384
72,hualmay,-11.0964,-77.6139,23.76,75,100,3.22,PE,1678057385
73,airai,-8.9266,125.4092,16.86,88,91,1.09,TL,1678057385
74,port elizabeth,-33.918,25.5701,19.16,82,0,6.69,ZA,1678057386
75,kaitangata,-46.2817,169.8464,15.01,53,15,2.98,NZ,1678057386
76,longyearbyen,78.2186,15.6401,-14.09,51,40,5.66,SJ,1678057387
77,san francisco,37.7749,-122.4194,13.49,62,75,6.17,US,1678057186
78,torbay,47.6666,-52.7314,-3.57,74,75,3.09,CA,1678057388
79,richards bay,-28.783,32.0377,23.6,84,0,5.52,ZA,1678057388
80,ostersund,63.1792,14.6357,-7.99,86,0,2.06,SE,1678057328
81,aksay,47.26,39.87,2.36,83,24,2.24,RU,1678057389
82,cherskiy,68.75,161.3,-33.31,96,98,2.88,RU,1678057389
83,grand-lahou,5.1367,-5.0242,26.54,89,58,2.71,CI,1678057390
84,rio grande,-32.035,-52.0986,24.06,70,52,5.53,BR,1678057391
85,half moon bay,37.4636,-122.4286,13.63,55,0,7.2,US,1678057391
86,rio tuba,8.5061,117.4317,25.4,80,48,5.75,PH,1678057392
87,vredendal,-31.6683,18.5012,17.31,89,10,2.3,ZA,1678057392
88,hay river,60.8156,-115.7999,-22.02,64,75,2.57,CA,1678057250
89,balkanabat,39.5108,54.3671,14.38,54,47,1.46,TM,1678057393
90,staraya toropa,56.2801,31.6702,-5.41,97,99,2.21,RU,1678057394
91,ouadda,8.0777,22.4007,23.73,13,100,2.33,CF,1678057395
92,cabedelo,-6.9811,-34.8339,28.37,74,97,4.76,BR,1678057273
93,cape town,-33.9258,18.4232,17.29,92,100,8.23,ZA,1678057199
94,xichang,27.8964,102.2634,9.48,83,51,1.02,CN,1678057395
95,san patricio,28.017,-97.5169,27.32,51,0,6.61,US,1678057396
96,viedma,-40.8135,-62.9967,31.9,17,0,4.54,AR,1678057140
97,whitehorse,60.7161,-135.0538,-12.72,53,0,2.57,CA,1678057396
98,margate,51.3813,1.3862,3.16,72,100,0.45,GB,1678057397
99,pokhara,28.2333,83.9833,16.47,32,0,3.09,NP,1678057397
100,labrea,-7.2586,-64.7981,24.73,93,99,0.64,BR,1678057398
101,makakilo city,21.3469,-158.0858,25.55,66,100,2.57,US,1678057275
102,comodoro rivadavia,-45.8667,-67.5,28.92,26,100,11.83,AR,1678057399
103,passo de camaragibe,-9.2368,-35.4901,25.75,76,78,1.9,BR,1678057399
104,porgera,-5.4667,143.2,9.92,84,100,0.43,PG,1678057400
105,mbeya,-8.9,33.45,15.01,93,99,1.25,TZ,1678057400
106,mahebourg,-20.4081,57.7,24.16,94,75,0.0,MU,1678057401
107,dumas,35.8656,-101.9732,23.08,6,0,12.35,US,1678057401
108,namibe,-15.1961,12.1522,22.45,66,12,1.85,AO,1678057402
109,lebu,-37.6167,-73.65,16.52,90,4,3.67,CL,1678057402
110,lagoa,39.05,-27.9833,13.94,67,87,9.47,PT,1678057403
111,husavik,66.0449,-17.3389,-3.71,65,100,8.22,IS,1678057403
112,pacific grove,36.6177,-121.9166,12.71,60,40,5.66,US,1678057404
113,pozo colorado,-23.4923,-58.7972,27.26,75,2,2.45,PY,1678057404
114,pevek,69.7008,170.3133,-34.37,100,100,4.06,RU,1678057405
115,kurilsk,45.2333,147.8833,1.54,69,1,2.93,RU,1678057405
116,kotaparh,19.15,82.35,17.33,31,0,0.88,IN,1678057406
117,awbari,26.5921,12.7805,14.38,17,69,2.71,LY,1678057406
118,guanica,17.9716,-66.908,26.95,67,30,4.86,PR,1678057407
119,yellowknife,62.456,-114.3525,-23.58,64,20,2.06,CA,1678057407
120,atar,20.5169,-13.0499,24.5,14,80,3.99,MR,1678057408
121,menongue,-14.6585,17.691,20.71,72,77,1.2,AO,1678057408
122,great yarmouth,52.6083,1.7305,2.79,83,87,3.31,GB,1678057332
123,sept-iles,50.2001,-66.3821,-2.71,66,100,6.69,CA,1678057323
124,san quintin,30.4833,-115.95,13.81,61,100,7.92,MX,1678057409
125,galway,53.2719,-9.0489,6.64,88,84,3.46,IE,1678057409
126,fairlie,55.756,-4.8556,3.0,89,74,2.45,GB,1678057410
127,bathsheba,13.2167,-59.5167,26.34,73,40,6.69,BB,1678057410
128,kortkeros,61.8106,51.5806,-13.0,100,87,2.09,RU,1678057411
129,makambako,-8.8453,34.823,14.38,95,89,1.48,TZ,1678057412
130,middelburg,-25.7751,29.4648,20.26,60,96,1.1,ZA,1678057299
131,saint-philippe,-21.3585,55.7679,24.77,87,100,2.11,RE,1678057413
132,vaini,-21.2,-175.2,25.09,94,100,7.72,TO,1678057413
133,thompson,55.7435,-97.8558,-13.91,66,75,3.09,CA,1678057247
134,khatanga,71.9667,102.5,-22.67,98,100,4.05,RU,1678057414
135,coolum beach,-26.5333,153.1,27.28,71,28,2.37,AU,1678057414
136,barrow,71.2906,-156.7887,-12.99,78,100,10.8,US,1678057415
137,east london,-33.0153,27.9116,22.34,88,46,7.46,ZA,1678057415
138,korla,41.7597,86.1469,4.72,49,3,1.35,CN,1678057232
139,chapais,49.7834,-74.8492,-0.12,86,100,4.52,CA,1678057416
140,toora-khem,52.4675,96.11,-11.1,96,100,0.9,RU,1678057417
141,cacador,-26.7753,-51.015,16.64,98,2,0.96,BR,1678057418
142,mar del plata,-38.0023,-57.5575,24.9,86,0,6.69,AR,1678057200
143,san jose,37.3394,-121.895,13.82,57,75,5.66,US,1678057121
144,vila franca do campo,37.7167,-25.4333,15.23,76,88,4.97,PT,1678057418
145,karla,59.3723,24.9275,-4.16,86,40,0.51,EE,1678057419
146,ifanadiana,-21.3,47.6333,20.54,98,87,1.13,MG,1678057420
147,labuhan,-6.8844,112.2051,24.91,86,100,3.27,ID,1678057421
148,saskylakh,71.9167,114.0833,-25.61,98,100,3.14,RU,1678057421
149,brae,60.3964,-1.353,0.92,96,100,10.47,GB,1678057422
150,ribeira grande,38.5167,-28.7,14.87,74,76,5.81,PT,1678057422
151,narsaq,60.9167,-46.05,10.12,69,4,4.74,GL,1678057394
152,bengkulu,-3.8004,102.2655,23.31,90,27,1.73,ID,1678057423
153,cacoal,-11.4386,-61.4472,24.66,93,71,0.91,BR,1678057423
154,nanortalik,60.1432,-45.2371,0.47,78,20,2.95,GL,1678057424
155,saint-augustin,51.226,-58.6502,1.86,96,100,7.09,CA,1678057424
156,upata,8.0086,-62.3989,25.66,62,98,3.42,VE,1678057425
157,georgetown,5.4112,100.3354,24.97,85,20,3.6,MY,1678057354
158,iraray,8.9936,118.0511,24.45,85,45,3.17,PH,1678057425
159,aykhal,66.0,111.5,-28.64,100,100,3.13,RU,1678057426
160,elliot,-31.3333,27.85,14.92,80,7,3.01,ZA,1678057426
161,matsubase,32.65,130.6667,5.22,69,0,0.91,JP,1678057427
162,bubaque,11.2833,-15.8333,24.68,68,35,8.17,GW,1678057427
163,letka,59.6011,49.4232,-13.63,99,99,2.3,RU,1678057428
164,chingirlau,51.095,54.0814,-4.29,87,68,4.6,KZ,1678057428
165,ranong,9.9658,98.6348,22.96,84,38,2.05,TH,1678057429
166,honiara,-9.4333,159.95,26.97,83,99,4.57,SB,1678057430
167,kupang,-10.1667,123.5833,24.32,100,40,0.51,ID,1678057430
168,touros,-5.1989,-35.4608,26.92,76,100,5.73,BR,1678057430
169,kozulka,50.0351,23.797,-2.24,93,100,3.59,UA,1678057431
170,cessnock,-32.8333,151.35,30.9,33,40,5.04,AU,1678057432
171,bethel,41.3712,-73.414,8.2,58,75,2.57,US,1678057432
172,chokurdakh,70.6333,147.9167,-45.22,100,62,0.54,RU,1678057432
173,dawson,31.7735,-84.4466,24.21,49,0,1.82,US,1678057235
174,palmer,42.1584,-72.3287,5.12,67,40,2.57,US,1678057433
175,qorveh,35.1664,47.8045,5.37,51,0,3.79,IR,1678057434
176,ahipara,-35.1667,173.1667,20.55,56,62,5.48,NZ,1678057434
177,waycross,31.2136,-82.354,26.13,56,0,5.14,US,1678057434
178,arica,-18.475,-70.3042,27.75,69,0,5.66,CL,1678057219
179,bafoussam,5.4737,10.4179,18.97,84,98,1.91,CM,1678057435
180,deputatskiy,69.3,139.9,-25.12,98,100,0.62,RU,1678057435
181,mangan,27.5167,88.5333,16.2,66,84,2.2,IN,1678057436
182,butaritari,3.0707,172.7902,26.92,77,96,2.55,KI,1678057436
183,sao joao da barra,-21.6403,-41.0511,27.05,83,77,8.64,BR,1678057436
184,klyuchevsk,57.1216,60.9414,-2.04,96,92,2.97,RU,1678057437
185,ostrovnoy,68.0531,39.5131,-11.4,84,100,3.02,RU,1678057437
186,kamensk-uralskiy,56.4185,61.9329,0.05,87,99,8.09,RU,1678057438
187,norman wells,65.282,-126.8329,-22.98,64,20,1.03,CA,1678057438
188,camana,-16.6228,-72.7111,23.59,78,99,3.02,PE,1678057438
189,san carlos del zulia,9.0,-71.9135,28.71,67,84,3.66,VE,1678057439
190,srednekolymsk,67.45,153.6833,-36.68,97,68,1.59,RU,1678057439
191,port alfred,-33.5906,26.891,17.88,96,76,0.89,ZA,1678057440
192,ponta do sol,32.6667,-17.1,20.35,85,73,3.32,PT,1678057440
193,zambezi,-13.5432,23.1047,18.59,98,93,1.79,ZM,1678057440
194,taranagar,28.6709,75.0351,20.0,36,0,2.33,IN,1678057441
195,hit,33.6416,42.8251,21.62,26,66,8.31,IQ,1678057442
196,santa cruz cabralia,-16.2781,-39.0247,25.13,88,40,3.6,BR,1678057442
197,olga,43.7444,135.2892,-0.44,78,17,2.13,RU,1678057443
198,la ronge,55.1001,-105.2842,-16.86,46,40,7.2,CA,1678057443
199,swift current,50.2834,-107.8014,-11.55,92,40,7.2,CA,1678057144
200,chau doc,10.7,105.1167,20.93,73,100,1.42,VN,1678057444
201,salaya,22.3167,69.6,24.26,62,22,4.31,IN,1678057444
202,xinzhou,38.4092,112.7333,6.53,28,17,0.76,CN,1678057445
203,mangrol,21.1167,70.1167,24.94,52,0,3.46,IN,1678057445
204,puri,19.8,85.85,21.29,65,0,2.65,IN,1678057446
205,ancud,-41.8697,-73.8203,15.62,94,62,6.57,CL,1678057446
206,yunyang,33.4474,112.7142,11.92,52,61,2.24,CN,1678057447
207,valdepenas,38.7621,-3.3848,5.47,89,100,3.88,ES,1678057447
208,ryotsu,38.0833,138.4333,5.88,65,26,1.12,JP,1678057447
209,puerto escondido,15.85,-97.0667,29.46,65,0,4.63,MX,1678057448
210,banes,20.9625,-75.7186,25.3,76,23,4.75,CU,1678057449
211,flinders,-34.5833,150.8552,30.59,65,16,2.68,AU,1678057450
212,camacha,33.0833,-16.3333,16.68,88,20,0.0,PT,1678057450
213,kodiak,57.79,-152.4072,1.36,67,77,0.34,US,1678057358
214,canby,45.2629,-122.6926,7.86,79,100,3.6,US,1678057451
215,sunnyvale,37.3688,-122.0363,13.79,56,20,5.14,US,1678057396
216,hailun,47.45,126.9333,-7.22,94,91,1.59,CN,1678057452
217,beloha,-25.1667,45.05,21.59,94,100,6.8,MG,1678057453
218,geraldton,-28.7667,114.6,16.23,82,0,4.12,AU,1678057453
219,vardo,70.3705,31.1107,-12.01,67,95,7.72,NO,1678057454
220,yulara,-25.2406,130.9889,23.86,41,29,6.47,AU,1678057455
221,zapolyarnyy,69.4154,30.8136,-13.4,98,100,1.62,RU,1678057455
222,hongjiang,27.11,109.9956,13.95,51,8,1.05,CN,1678057456
223,dunedin,-45.8742,170.5036,14.78,57,11,3.3,NZ,1678057456
224,hurghada,27.2574,33.8129,25.02,12,0,0.0,EG,1678057203
225,galveston,29.3669,-94.9669,24.06,68,0,4.12,US,1678057457
226,santa vitoria do palmar,-33.5189,-53.3681,20.3,81,0,3.45,BR,1678057190
227,caluquembe,-13.7833,14.6833,17.34,85,91,1.13,AO,1678057458
228,puerto leguizamo,-0.1934,-74.7819,22.46,98,100,0.95,CO,1678057458
229,capanema,-1.1958,-47.1808,23.73,97,100,1.5,BR,1678057459
230,tambopata,-12.7333,-69.1833,26.94,83,20,2.06,PE,1678057459
231,gubkin,51.2817,37.5458,-4.29,86,76,3.83,RU,1678057460
232,nemuro,43.3236,145.575,0.54,83,5,6.1,JP,1678057460
233,tual,-5.6667,132.75,27.57,78,100,9.75,ID,1678057461
234,lagos,6.5833,3.75,28.18,82,58,2.61,NG,1678057390
235,jensen beach,27.2545,-80.2298,27.03,78,0,3.6,US,1678057374
236,pirovskoye,57.6267,92.2658,-10.14,96,100,2.12,RU,1678057462
237,luganville,-15.5333,167.1667,28.55,75,94,0.19,VU,1678057463
238,tarko-sale,64.9225,77.785,-27.57,100,100,3.05,RU,1678057463
239,severo-kurilsk,50.6789,156.125,0.05,83,88,3.29,RU,1678057464
240,tromso,69.6496,18.957,-5.9,79,75,3.09,NO,1678057464
241,domat,46.8348,9.4508,0.19,84,52,1.32,CH,1678057465
242,galashki,43.1136,44.9894,0.53,80,94,0.93,RU,1678057465
243,mount gambier,-37.8333,140.7667,16.33,63,86,4.36,AU,1678057416
244,benghazi,32.1167,20.0667,15.35,65,6,6.97,LY,1678057466
245,klaksvik,62.2266,-6.589,-1.49,72,100,13.92,FO,1678057466
246,havoysund,70.9963,24.6622,-5.87,69,99,4.42,NO,1678057467
247,trincomalee,8.5711,81.2335,26.3,77,70,5.13,LK,1678057467
248,sistranda,63.7256,8.834,-7.02,58,100,6.69,NO,1678057468
249,ilmatsalu,58.3881,26.5593,-5.93,84,20,2.57,EE,1678057468
250,vryburg,-26.9566,24.7284,18.78,38,2,3.7,ZA,1678057469
251,yanam,16.7333,82.2167,18.94,90,0,0.93,IN,1678057469
252,souillac,-20.5167,57.5167,24.21,94,75,0.0,MU,1678057470
253,fortuna,40.5982,-124.1573,9.51,55,75,4.12,US,1678057470
254,jackson,42.4165,-122.8345,6.33,62,99,2.24,US,1678057322
255,ternate,0.8,127.4,26.64,81,58,4.73,ID,1678057471
256,bucerias,20.75,-105.3333,24.99,60,0,5.14,MX,1678057471
257,barcelos,41.5388,-8.6151,12.08,94,97,2.29,PT,1678057472
258,mersin,36.862,34.6509,15.11,54,86,2.44,TR,1678057472
259,tanete,-3.9443,119.7848,24.43,88,100,2.1,ID,1678057473
260,sompeta,18.9333,84.6,23.8,38,0,2.0,IN,1678057473
261,havelange,50.3833,5.2333,2.35,97,100,2.16,BE,1678057474
262,synya,65.3718,58.0387,-29.29,100,96,1.14,RU,1678057475
263,phan thiet,10.9333,108.1,20.23,75,100,2.9,VN,1678057475
264,saldanha,-33.0117,17.9442,17.03,86,42,8.54,ZA,1678057476
265,luanda,-8.8368,13.2343,25.0,83,40,3.6,AO,1678057344
266,nelson bay,-32.7167,152.15,28.89,70,58,3.13,AU,1678057477
267,havre-saint-pierre,50.2334,-63.5986,-2.8,63,100,7.72,CA,1678057478
268,requena,39.4883,-1.1004,5.84,90,100,5.91,ES,1678057478
269,meulaboh,4.1363,96.1285,23.2,87,5,1.98,ID,1678057479
270,kavaratti,10.5669,72.642,27.19,69,0,1.69,IN,1678057479
271,galle,6.0367,80.217,24.28,83,87,1.45,LK,1678057480
272,cabo san lucas,22.8909,-109.9124,25.9,52,0,4.52,MX,1678057202
273,mao,39.8885,4.2658,11.31,87,75,3.6,ES,1678057480
274,tasiilaq,65.6145,-37.6368,-3.91,85,38,1.96,GL,1678057481
275,gizo,-8.103,156.8419,25.77,87,100,3.53,SB,1678057481
276,san cristobal,7.7669,-72.225,30.74,66,48,1.28,VE,1678057482
277,vaitape,-16.5167,-151.75,28.61,72,94,7.99,PF,1678057482
278,tura,25.5198,90.2201,19.35,47,0,1.52,IN,1678057363
279,constitucion,-35.3333,-72.4167,16.31,81,27,4.49,CL,1678057483
280,hammerfest,70.6634,23.6821,-5.75,93,100,4.12,NO,1678057484
281,emerald,-23.5333,148.1667,25.75,62,3,5.38,AU,1678057484
282,shimoda,34.6667,138.95,8.95,81,94,4.27,JP,1678057484
283,vicosa,-20.7539,-42.8819,20.84,86,92,2.04,BR,1678057485
284,victoria,22.2855,114.1577,17.96,64,0,3.58,HK,1678057376
285,asau,46.4333,26.4,0.71,80,76,1.86,RO,1678057486
286,bambous virieux,-20.3428,57.7575,24.14,94,75,0.0,MU,1678057486
287,karachi,24.9056,67.0822,23.9,46,0,2.06,PK,1678057203
288,loveland,40.3978,-105.075,13.21,47,0,11.32,US,1678057329
289,sorland,67.667,12.6934,-2.08,61,100,10.52,NO,1678057487
290,roald,62.5833,6.1333,0.97,100,75,3.09,NO,1678057279
291,port hedland,-20.3167,118.5667,29.03,89,75,3.6,AU,1678057488
292,lewiston,44.1003,-70.2148,3.29,67,0,3.09,US,1678057328
293,dandong,40.1292,124.3947,2.57,74,59,2.91,CN,1678057488
294,palmas,-10.2128,-48.3603,26.93,89,20,2.06,BR,1678057489
295,axim,4.8699,-2.2405,25.98,88,28,0.71,GH,1678057489
296,mokhsogollokh,61.4681,128.9203,-17.54,97,94,2.17,RU,1678057490
297,tiksi,71.6872,128.8694,-22.1,100,100,1.53,RU,1678057490
298,isangel,-19.55,169.2667,27.77,75,13,3.66,VU,1678057491
299,galesong,-5.3166,119.3661,24.01,89,100,3.44,ID,1678057491
300,san ramon,37.7799,-121.978,12.63,54,40,6.17,US,1678057329
301,ylivieska,64.0833,24.55,-7.6,97,98,1.3,FI,1678057492
302,cap malheureux,-19.9842,57.6142,24.15,88,100,2.24,MU,1678057492
303,hirara,24.8,125.2833,14.15,58,40,5.14,JP,1678057493
304,toftlund,55.1886,9.0693,0.33,86,0,1.54,DK,1678057494
305,altus,34.6381,-99.334,29.04,25,0,9.77,US,1678057494
306,quatre cocos,-20.2078,57.7625,24.06,89,100,2.98,MU,1678057495
307,manastirea,44.2167,26.9,6.68,71,94,3.43,RO,1678057495
308,santa lucia,27.9117,-15.5407,13.62,77,20,3.09,ES,1678057496
309,kaduqli,11.0167,29.7167,28.48,17,6,2.31,SD,1678057497
310,havelock,34.8791,-76.9013,16.99,60,0,4.63,US,1678057205
311,bilma,18.6853,12.9164,27.56,9,41,4.82,NE,1678057497
312,casma,-41.0082,-73.1244,22.78,56,20,2.53,CL,1678057498
313,gravdal,68.1214,13.5031,-4.06,54,40,6.69,NO,1678057392
314,adrar,20.5022,-10.0711,22.66,13,52,4.15,MR,1678057499
315,karratha,-20.7377,116.8463,29.52,69,81,2.99,AU,1678057499
316,aksu,41.1231,80.2644,6.36,40,8,1.94,CN,1678057228
317,kununurra,-15.7667,128.7333,26.99,83,61,1.03,AU,1678057282
318,port shepstone,-30.7414,30.455,24.13,91,63,6.87,ZA,1678057500
319,vostok,46.4856,135.8833,-1.07,84,75,2.97,RU,1678057501
320,bourne,52.7667,-0.3833,3.5,81,100,2.06,GB,1678057501
321,lima,-12.0432,-77.0282,26.14,61,0,3.09,PE,1678056857
322,bourail,-21.5667,165.4833,27.32,69,45,2.94,NC,1678057258
323,pecos,31.4229,-103.4932,30.13,6,44,7.72,US,1678057502
324,qianan,44.9932,124.0581,0.28,64,97,3.03,CN,1678057503
325,erzin,36.9559,36.2,16.34,50,100,2.6,TR,1678057503
326,svetlogorsk,52.6333,29.7333,-2.64,66,42,4.09,BY,1678057504
327,college,64.8569,-147.8028,-6.22,55,75,0.0,US,1678057505
328,petropavlovsk-kamchatskiy,53.0452,158.6483,-11.67,67,75,3.0,RU,1678057505
329,asfi,32.2994,-9.2372,14.51,72,99,2.98,MA,1678057506
330,miri,4.4148,114.0089,24.08,100,40,1.54,MY,1678057506
331,mahibadhoo,3.7833,72.9667,27.19,77,100,7.06,MV,1678057507
332,grand gaube,-20.0064,57.6608,24.22,88,100,2.24,MU,1678057507
333,te anau,-45.4167,167.7167,15.82,51,25,0.32,NZ,1678057508
334,dingle,10.9995,122.6711,23.49,86,57,4.53,PH,1678057508
335,vao,-22.6667,167.4833,24.42,69,83,7.39,NC,1678057508
336,egvekinot,66.3167,-179.1667,-11.38,95,100,2.61,RU,1678057509
337,nome,64.5011,-165.4064,-0.47,100,100,9.77,US,1678057509
338,jacareacanga,-6.2222,-57.7528,24.48,96,62,0.81,BR,1678057396
339,chulym,55.0997,80.9572,-14.1,99,94,2.09,RU,1678057510
340,igrim,63.1906,64.4162,-16.16,98,92,2.18,RU,1678057510
341,reconquista,-29.15,-59.65,28.23,43,0,3.75,AR,1678057511
342,hasaki,35.7333,140.8333,8.45,80,100,6.46,JP,1678057511
343,quzhou,28.9594,118.8686,10.0,62,0,0.94,CN,1678057512
344,fukue,32.6881,128.8419,12.01,61,0,4.79,JP,1678057512
345,ayan,56.45,138.1667,-12.25,78,92,3.55,RU,1678057513
346,kyra,49.5776,111.9753,-9.66,85,19,1.12,RU,1678057513
347,crotone,39.0851,17.1178,9.89,70,0,2.11,IT,1678057513
348,sawakin,19.1059,37.3321,25.65,83,98,3.8,SD,1678057514
349,alugan,12.2188,125.4808,24.73,87,73,3.23,PH,1678057514
350,daru,-9.0763,143.2092,26.79,82,94,5.91,PG,1678057515
351,codrington,-38.2667,141.9667,14.85,72,76,4.5,AU,1678057515
352,mataram,-8.5833,116.1167,24.45,89,99,1.53,ID,1678057516
353,plettenberg bay,-34.0527,23.3716,17.99,89,38,6.41,ZA,1678057517
354,oranjemund,-28.55,16.4333,17.47,95,27,0.77,NA,1678057517
355,misratah,32.3754,15.0925,13.98,59,0,4.9,LY,1678057518
356,berlevag,70.8578,29.0864,-11.0,67,0,9.77,NO,1678057393
357,fort nelson,58.8053,-122.7002,-13.23,43,40,2.57,CA,1678057250
358,ruidoso,33.3317,-105.673,15.53,15,9,6.69,US,1678057519
359,balsas,-7.5325,-46.0356,25.9,79,84,1.98,BR,1678057281
360,pitimbu,-7.4706,-34.8086,28.33,71,94,4.61,BR,1678057519
361,rawson,-43.3002,-65.1023,26.98,30,0,6.15,AR,1678057228
362,sousa,-6.7592,-38.2281,28.36,46,76,3.7,BR,1678057520
363,santa cruz,-17.8,-63.1667,29.03,74,75,3.6,BO,1678057520
364,manzhouli,49.6,117.4333,-13.91,91,56,2.84,CN,1678057521
365,blind river,46.1834,-82.9582,5.06,82,75,1.77,CA,1678057521
366,padang,-0.9492,100.3543,24.57,86,100,1.81,ID,1678057522
367,dinguiraye,11.3,-10.7167,28.28,22,0,1.43,GN,1678057522
368,norsup,-16.0667,167.3833,28.33,75,97,5.05,VU,1678057522
369,ivaipora,-24.2478,-51.6847,19.78,93,3,0.79,BR,1678057523
370,ulladulla,-35.35,150.4667,27.73,49,3,3.14,AU,1678057523
371,piranshahr,36.701,45.1413,7.37,68,7,3.93,IR,1678057524
372,uvinza,-5.1036,30.3911,18.93,95,100,0.47,TZ,1678057524
373,kaputa,-8.4689,29.6619,20.44,90,100,0.88,ZM,1678057525
374,watsa,3.0372,29.5355,22.06,63,87,1.13,CD,1678057525
375,skive,56.5667,9.0333,1.17,84,54,2.31,DK,1678057525
376,abbeville,50.1,1.8333,4.58,80,100,2.41,FR,1678057526
377,sioux lookout,50.1001,-91.917,4.04,35,40,2.57,CA,1678057526
378,bulolo,-7.2,146.65,25.13,73,99,0.86,PG,1678057527
379,brigantine,39.4101,-74.3646,11.68,50,20,4.63,US,1678057527
380,walvis bay,-22.9575,14.5053,17.53,67,0,1.54,NA,1678057527
381,kibala,9.1104,18.3463,24.97,20,0,2.06,TD,1678057528
382,stanford,37.4241,-122.1661,13.88,55,75,7.2,US,1678057266
383,pachino,36.7186,15.0907,10.63,77,0,6.22,IT,1678057528
384,marabba,12.35,32.1833,30.81,20,1,4.11,SD,1678057529
385,bereda,43.2686,-7.5406,6.43,99,96,0.6,ES,1678057530
386,port hardy,50.6996,-127.4199,7.1,70,75,2.06,CA,1678057248
387,san pedro,14.35,121.0167,24.03,75,20,1.03,PH,1678057530
388,weligama,5.9667,80.4167,23.37,85,84,1.83,LK,1678057530
389,talara,-4.5772,-81.2719,27.42,65,40,2.57,PE,1678057531
390,nouadhibou,20.931,-17.0347,21.99,53,41,7.72,MR,1678057531
391,aasiaat,68.7098,-52.8699,-9.96,86,83,3.7,GL,1678057532
392,loksa,59.5764,25.7214,-5.04,86,100,2.37,EE,1678057532
393,esperance,-33.8667,121.9,18.21,65,95,5.12,AU,1678057533
394,scarborough,54.2797,-0.4044,2.73,88,93,1.53,GB,1678057533
395,qasigiannguit,68.8193,-51.1922,-2.86,76,75,1.97,GL,1678057534
396,lago da pedra,-4.3333,-45.1667,24.65,94,99,1.28,BR,1678057534
397,malakal,9.5334,31.6605,30.87,15,17,1.36,SS,1678057534
398,castrillon,43.3979,-6.7922,5.33,96,44,1.18,ES,1678057535
399,morondava,-20.2833,44.2833,26.63,83,94,9.66,MG,1678057535
400,catamarca,-28.4696,-65.7852,32.1,44,55,2.24,AR,1678057536
401,hobyo,5.3505,48.5268,25.55,80,22,7.82,SO,1678057536
402,hansi,29.1,75.9667,17.11,39,0,2.32,IN,1678057536
403,pitsunda,43.1592,40.3378,8.1,84,100,3.58,GE,1678057537
404,the valley,18.217,-63.0578,26.08,69,20,4.12,AI,1678057344
405,mayo,38.8876,-76.5119,15.09,44,0,2.57,US,1678057353
406,sanivarsante,12.7333,75.9,17.92,43,0,2.46,IN,1678057538
407,gigmoto,13.7796,124.39,24.36,86,94,6.64,PH,1678057538
408,paamiut,61.994,-49.6678,-1.22,70,28,4.45,GL,1678057311
409,krasnoselkup,65.7,82.4667,-27.16,100,100,2.43,RU,1678057539
410,claremore,36.3126,-95.6161,24.73,42,0,7.72,US,1678057539
411,vila velha,-20.3297,-40.2925,26.08,85,0,5.66,BR,1678057539
412,tynda,55.1667,124.7167,-19.87,95,100,1.57,RU,1678057540
413,prince rupert,54.3161,-130.3201,4.05,35,0,3.6,CA,1678057540
414,mezen,65.8522,44.24,-18.86,100,99,1.05,RU,1678057540
415,likasi,-10.9814,26.7333,17.33,93,100,1.05,CD,1678057541
416,benevento,41.2179,14.7464,9.86,92,10,1.63,IT,1678057541
417,ketchikan,55.3422,-131.6461,4.26,38,0,2.57,US,1678057542
418,lazaro cardenas,17.9583,-102.2,26.94,65,25,4.83,MX,1678057542
419,elizabeth city,36.2946,-76.2511,17.01,48,0,2.57,US,1678057542
420,ewa beach,21.3156,-158.0072,26.97,66,0,4.63,US,1678057543
421,waingapu,-9.6567,120.2641,25.02,88,99,2.73,ID,1678057543
422,yabrud,33.9674,36.6574,12.09,34,2,7.49,SY,1678057543
423,sinnamary,5.3833,-52.95,24.94,87,81,5.67,GF,1678057276
424,byron bay,-28.65,153.6167,27.62,64,0,4.24,AU,1678057544
425,thenzawl,23.3167,92.75,12.62,63,0,1.45,IN,1678057376
426,charters towers,-20.1,146.2667,25.35,69,96,7.14,AU,1678057545
427,turukhansk,65.8167,87.9833,-19.96,98,100,2.62,RU,1678057545
428,ossora,59.2353,163.0719,-20.26,86,94,1.43,RU,1678057545
429,taunggyi,20.7833,97.0333,12.43,56,0,1.37,MM,1678057546
430,cairns,-16.9167,145.7667,25.04,100,100,1.54,AU,1678057546
431,kiato,38.0167,22.75,11.11,57,18,1.79,GR,1678057547
432,cockburn town,21.4612,-71.1419,24.98,78,40,4.63,TC,1678057547
433,taltal,-25.4,-70.4833,21.73,78,59,1.93,CL,1678057287
434,hamilton,39.1834,-84.5333,14.41,47,0,4.12,US,1678057540
435,babra,21.85,71.3,25.94,29,2,3.36,IN,1678057548
436,rimouski,48.4488,-68.524,1.82,78,100,6.85,CA,1678057391
437,tsiroanomandidy,-18.7667,46.0333,19.85,96,99,2.94,MG,1678057548
438,rosarito,32.3333,-117.0333,16.25,55,100,5.08,MX,1678057512
439,akom,2.6678,12.7109,23.4,76,100,2.4,CM,1678057549
440,kastornoye,51.8334,38.1302,-6.59,94,38,3.76,RU,1678057549
441,quelimane,-17.8786,36.8883,22.59,96,100,1.98,MZ,1678057550
442,ilulissat,69.2167,-51.1,-2.99,74,75,0.0,GL,1678057550
443,lorengau,-2.0226,147.2712,27.95,74,75,2.27,PG,1678057550
444,gayny,60.3071,54.3241,-7.84,98,99,1.6,RU,1678057551
445,taoudenni,22.6783,-3.9836,25.06,13,0,4.96,ML,1678057551
446,sakaiminato,35.55,133.2333,0.99,100,20,2.57,JP,1678057552
447,skibbereen,51.55,-9.2667,5.62,72,98,2.51,IE,1678057552
448,bembereke,10.2283,2.6634,31.98,20,91,1.68,BJ,1678057552
449,port-gentil,-0.7193,8.7815,28.15,80,82,5.34,GA,1678057553
450,yenagoa,4.9247,6.2642,25.73,90,98,0.7,NG,1678057553
451,warman,52.3168,-106.5679,-17.84,64,75,3.6,CA,1678057554
452,salym,60.0625,71.4789,-8.91,98,98,2.03,RU,1678057554
453,maningrida,-12.0667,134.2667,27.43,77,100,6.22,AU,1678057554
454,gemena,3.25,19.7667,26.92,42,100,0.79,CD,1678057555
455,den helder,52.9599,4.7593,4.43,81,100,4.12,NL,1678057555
456,lompoc,34.6391,-120.4579,13.23,76,0,3.6,US,1678057556
457,fairbanks,64.8378,-147.7164,-6.21,56,75,0.0,US,1678057556
458,aklavik,68.2191,-135.0107,-21.16,88,6,4.3,CA,1678057556
459,moreira sales,-24.0622,-53.0069,21.73,87,4,1.89,BR,1678057557
460,camacupa,-12.0167,17.4833,16.81,91,98,1.65,AO,1678057557
461,torit,4.4133,32.5678,28.66,31,58,2.01,SS,1678057557
462,ambilobe,-13.2,49.05,23.49,96,80,1.14,MG,1678057558
463,roma,43.2128,-75.4557,3.23,91,100,3.09,US,1678057299
464,bahia honda,22.9036,-83.1592,27.06,64,17,4.99,CU,1678057558
465,bose,45.4612,8.0137,7.09,83,14,1.32,IT,1678057559
466,nanjing,32.0617,118.7778,4.95,53,0,2.11,CN,1678057540
467,sembakung,3.8167,117.25,22.95,95,100,0.27,ID,1678057560
468,grandview,38.8858,-94.533,22.36,47,0,11.83,US,1678057500
469,mackay,-21.15,149.2,28.16,70,85,5.64,AU,1678057560
470,thinadhoo,0.5333,72.9333,27.02,75,88,2.53,MV,1678057560
471,bonanza,14.0289,-84.591,26.55,62,36,2.06,NI,1678057561
472,olovyannaya,50.95,115.5667,-15.38,82,3,1.99,RU,1678057561
473,pilar,-9.5972,-35.9567,24.96,74,78,3.39,BR,1678057562
474,kroonstad,-27.6504,27.2349,16.74,84,58,1.79,ZA,1678057562
475,nabire,-3.3667,135.4833,23.46,96,100,1.73,ID,1678057563
476,manaure,11.7751,-72.4445,26.64,73,93,10.99,CO,1678057564
477,clyde river,70.4692,-68.5914,-16.87,85,0,4.63,CA,1678057564
478,bayangol,50.6977,103.4656,-15.37,95,58,1.04,RU,1678057564
479,san jeronimo,-11.9472,-75.2829,13.11,79,100,1.97,PE,1678057565
480,odweyne,9.4092,45.064,19.37,45,2,2.57,SO,1678057565
481,avera,33.194,-82.5271,21.73,52,0,2.08,US,1678057565
482,tomatlan,19.9333,-105.25,29.59,37,1,4.62,MX,1678057566
483,iskateley,67.6803,53.1512,-18.28,99,100,3.32,RU,1678057566
484,bara,10.3744,10.7288,30.16,20,91,3.54,NG,1678057567
485,fez,34.0372,-4.9998,11.14,100,40,2.06,MA,1678057567
486,buraydah,26.326,43.975,24.25,21,51,5.36,SA,1678057568
487,ledyard,41.4398,-72.0142,7.93,59,0,5.66,US,1678057568
488,anadyr,64.75,177.4833,-25.56,75,20,7.0,RU,1678057568
489,beyneu,45.3167,55.2,6.4,72,94,5.42,KZ,1678057569
490,gisborne,-38.6533,178.0042,16.92,77,89,5.95,NZ,1678057569
491,oranjestad,12.524,-70.027,26.97,74,40,10.8,AW,1678057394
492,zhuhai,22.2769,113.5678,18.25,72,20,4.63,CN,1678057570
493,kandrian,-6.2167,149.55,27.13,81,99,1.24,PG,1678057570
494,poum,-20.2333,164.0167,26.32,77,32,3.28,NC,1678057571
495,sobolevo,54.4299,31.8996,-6.64,90,98,3.83,RU,1678057571
496,kaiyuan,23.6977,103.3037,12.63,87,33,2.21,CN,1678057572
497,conde,-7.2597,-34.9075,27.7,74,20,3.09,BR,1678057572
498,bilibino,68.0546,166.4372,-29.3,99,99,0.23,RU,1678057573
499,olden,61.8364,6.8064,-2.59,97,98,0.56,NO,1678057574
500,filimonovo,56.2011,95.4611,-9.37,95,100,1.91,RU,1678057574
501,vasterhaninge,59.1167,18.1,-3.98,87,70,4.92,SE,1678057575
502,naze,28.3667,129.4833,12.51,62,47,4.76,JP,1678057575
503,maniitsoq,65.4167,-52.9,-0.38,65,70,3.78,GL,1678057575
504,uba,-21.12,-42.9428,23.07,86,76,2.28,BR,1678057576
505,haines junction,60.7522,-137.5108,-15.03,47,87,0.0,CA,1678057576
506,nangong,37.3581,115.3744,9.77,30,36,1.79,CN,1678057577
507,ust-nera,64.5667,143.2,-28.65,98,97,1.34,RU,1678057577
508,kaupanger,61.1845,7.2404,-2.73,73,75,0.0,NO,1678057578
509,bo rai,12.5728,102.5371,22.63,75,9,1.47,TH,1678057578
510,nerchinskiy zavod,51.3088,119.61,-21.52,94,16,1.11,RU,1678057578
511,manta,-0.95,-80.7333,27.88,78,75,3.09,EC,1678057579
512,new milford,40.9327,-74.0179,9.93,54,100,4.63,US,1678057579
513,eureka,40.8021,-124.1637,9.66,66,94,3.58,US,1678057580
514,tilichiki,60.4667,166.1,-23.27,91,98,2.1,RU,1678057580
515,buala,-8.145,159.5921,26.93,77,100,3.52,SB,1678057581
516,natal,-5.795,-35.2094,26.36,78,20,3.6,BR,1678056816
517,bontang,0.1333,117.5,24.61,82,100,1.27,ID,1678057581
518,aburi,5.8472,-0.1775,25.84,74,61,3.96,GH,1678057582
519,douglas,41.3,-96.167,18.9,60,75,5.14,US,1678057582
520,mmabatho,-25.85,25.6333,18.27,74,45,1.06,ZA,1678057583
521,shakopee,44.798,-93.5269,4.38,63,100,5.14,US,1678057583
522,dedovichi,57.5517,29.9502,-5.08,98,100,1.55,RU,1678057584
523,yilan,24.757,121.753,16.12,99,0,1.78,TW,1678057584
524,caceres,39.522,-6.3748,7.31,98,99,0.89,ES,1678057584
525,yokadouma,3.5167,15.05,25.83,43,83,0.87,CM,1678057585
526,vieste,41.8825,16.175,10.39,66,10,2.07,IT,1678057585
527,biltine,14.5333,20.9167,25.69,9,0,4.49,TD,1678057586
528,talcher,20.95,85.2167,19.67,30,0,1.23,IN,1678057586
529,namatanai,-3.6667,152.4333,28.51,72,87,3.29,PG,1678057587
530,vestmannaeyjar,63.4427,-20.2734,0.38,84,100,4.63,IS,1678057587
531,lalmohan,22.3384,90.7419,23.0,49,0,2.49,BD,1678057588
532,atbasar,51.8,68.3333,-5.89,94,85,7.25,KZ,1678057588
533,kholmogory,64.2229,41.656,-18.28,99,93,1.03,RU,1678057589
534,bestobe,52.4994,73.0975,-1.91,83,81,7.14,KZ,1678057589
535,aldergrove,49.058,-122.4709,10.42,54,75,4.63,CA,1678057589
536,boende,-0.2167,20.8667,26.94,57,90,1.67,CD,1678057590
537,aquiraz,-3.9014,-38.3911,28.05,85,98,4.74,BR,1678057372
538,beringovskiy,63.05,179.3167,-21.37,87,76,0.6,RU,1678057590
539,kenai,60.5544,-151.2583,-1.95,45,0,4.63,US,1678057591
540,maues,-3.3836,-57.7186,24.18,97,100,1.26,BR,1678057592
541,hofn,64.2539,-15.2082,-3.43,64,3,8.82,IS,1678057394
542,iona,26.5204,-81.964,28.03,67,0,5.14,US,1678057592
543,lata,40.1629,-8.3327,12.12,97,51,2.01,PT,1678057593
544,nijar,36.9665,-2.206,11.8,62,0,2.57,ES,1678057594
545,moncton,46.1159,-64.8019,2.4,32,20,6.69,CA,1678057548
546,shirokiy,49.758,129.523,-7.82,97,50,3.08,RU,1678057594
547,palana,59.1167,159.9667,-8.53,94,100,2.67,RU,1678057595
548,kruisfontein,-34.0033,24.7314,17.55,85,4,8.74,ZA,1678057595
549,koungou,-12.7336,45.2042,28.84,79,40,4.63,YT,1678057596
550,maarianhamina,60.0973,19.9348,-1.21,93,100,2.06,AX,1678057596
551,zonguldak,41.25,31.8333,5.43,97,100,2.54,TR,1678057597
552,vila,42.0304,-8.1588,3.72,84,100,1.29,PT,1678057598
553,constantine,36.365,6.6147,6.67,52,0,2.06,DZ,1678057480
554,zyryanka,65.75,150.85,-32.09,93,80,2.4,RU,1678057598
555,acarau,-2.8856,-40.12,26.75,81,94,7.0,BR,1678057599
556,wana,32.2989,69.5725,12.58,53,7,1.37,PK,1678057599
557,reyes,-14.3167,-67.3833,24.38,97,90,0.28,BO,1678057600
558,kichmengskiy gorodok,59.9816,45.7854,-18.53,100,95,1.66,RU,1678057601
559,leon,21.1167,-101.6667,30.03,50,94,1.55,MX,1678057559
