City_ID,City,Lat,Lng,Max Temp,Humidity,Cloudiness,Wind Speed,Country,Date
0,vaini,-21.2,-175.2,26.09,83,20,3.6,TO,1678820731
1,te anau,-45.4167,167.7167,10.16,90,93,0.36,NZ,1678820732
2,santa cruz,-17.8,-63.1667,30.03,62,75,7.72,BO,1678820732
3,hambantota,6.1241,81.1185,25.19,100,0,1.03,LK,1678820733
4,chatham,51.3789,0.5279,7.92,52,100,1.79,GB,1678820733
5,pevek,69.7008,170.3133,-27.09,100,69,4.27,RU,1678820734
6,busselton,-33.65,115.3333,16.41,87,0,1.14,AU,1678820464
7,ahipara,-35.1667,173.1667,14.19,77,100,1.73,NZ,1678820734
8,katsuura,35.1333,140.3,10.01,70,62,2.78,JP,1678820735
9,ushuaia,-54.8,-68.3,3.79,93,100,9.26,AR,1678820735
10,waw,7.7029,27.9953,28.05,50,99,0.99,SS,1678820736
11,port elizabeth,-33.918,25.5701,22.4,99,75,4.12,ZA,1678820736
12,mount darwin,-16.7725,31.5838,16.63,95,56,1.53,ZW,1678820737
13,kavieng,-2.5744,150.7967,27.29,74,98,1.57,PG,1678820737
14,yellowknife,62.456,-114.3525,-15.71,60,20,4.12,CA,1678820520
15,atuona,-9.8,-139.0333,26.65,78,100,3.66,PF,1678820738
16,bredasdorp,-34.5322,20.0403,20.94,91,49,3.11,ZA,1678820738
17,gallup,35.5281,-108.7426,12.91,37,0,4.12,US,1678820739
18,puerto escondido,15.85,-97.0667,30.46,74,0,3.09,MX,1678820740
19,pinega,64.7001,43.3936,-1.31,95,100,5.59,RU,1678820740
20,dikson,73.5069,80.5464,-8.94,83,20,12.88,RU,1678820741
21,cidreira,-30.1811,-50.2056,26.61,79,47,7.52,BR,1678820597
22,kapaa,22.0752,-159.319,26.72,81,75,4.63,US,1678820742
23,port blair,11.6667,92.75,28.02,74,40,1.03,IN,1678820743
24,hobart,-42.8794,147.3294,14.47,92,100,3.09,AU,1678820552
25,vostok,46.4856,135.8833,-8.3,94,100,2.45,RU,1678820743
26,mataura,-46.1927,168.8643,12.49,96,100,0.68,NZ,1678820744
27,erenhot,43.6475,111.9767,-6.45,37,100,6.14,CN,1678820744
28,saint-augustin,51.226,-58.6502,-0.32,82,88,2.56,CA,1678820745
29,sovetskiy,61.3614,63.5842,-9.24,94,11,2.42,RU,1678820745
30,victoria,22.2855,114.1577,19.62,85,95,4.47,HK,1678820406
31,ust-nera,64.5667,143.2,-14.7,98,100,2.7,RU,1678820746
32,conceicao da barra,-18.5933,-39.7322,27.71,66,84,4.18,BR,1678820525
33,birin,26.8865,88.0718,13.31,38,0,2.91,NP,1678820746
34,fengrun,39.8333,118.1167,3.4,12,12,6.68,CN,1678820747
35,tuktoyaktuk,69.4541,-133.0374,-32.0,68,40,3.6,CA,1678820609
36,narsaq,60.9167,-46.05,-0.88,72,79,1.31,GL,1678820747
37,norman wells,65.282,-126.8329,-21.98,71,40,4.63,CA,1678820748
38,carnarvon,-24.8667,113.6333,24.97,77,0,8.18,AU,1678820748
39,punta arenas,-53.15,-70.9167,8.06,66,20,14.92,CL,1678820749
40,dudinka,69.4058,86.1778,-4.1,97,100,8.8,RU,1678820749
41,sao filipe,14.8961,-24.4956,24.9,57,0,4.82,CV,1678820750
42,bahir dar,11.5936,37.3908,22.55,28,13,3.88,ET,1678820750
43,pangai,-19.8,-174.35,27.06,74,20,3.09,TO,1678820751
44,nome,64.5011,-165.4064,-16.96,60,0,2.57,US,1678820751
45,aitape,-3.1374,142.3475,24.51,83,98,1.15,PG,1678820752
46,novo aripuana,-5.1206,-60.3797,26.49,87,82,0.49,BR,1678820752
47,jamestown,42.097,-79.2353,-3.88,88,100,8.75,US,1678820634
48,avarua,-21.2078,-159.775,26.03,78,0,0.51,CK,1678820753
49,bam,29.106,58.357,19.66,37,30,3.93,IR,1678820753
50,hermanus,-34.4187,19.2345,22.11,91,13,5.33,ZA,1678820753
51,leningradskiy,69.3833,178.4167,-28.39,95,22,2.59,RU,1678820754
52,hilo,19.7297,-155.09,29.04,77,0,2.57,US,1678820643
53,riyadh,24.6877,46.7219,23.08,35,100,6.58,SA,1678820736
54,bengkulu,-3.8004,102.2655,23.29,91,99,2.17,ID,1678820754
55,nisia floresta,-6.0911,-35.2086,29.45,61,100,4.93,BR,1678820755
56,rikitea,-23.1203,-134.9692,26.19,73,0,5.24,PF,1678820755
57,padang,-0.9492,100.3543,24.03,86,100,2.15,ID,1678820756
58,hobyo,5.3505,48.5268,27.2,81,86,6.07,SO,1678820757
59,abha,18.2164,42.5053,13.9,94,40,3.09,SA,1678820661
60,hasaki,35.7333,140.8333,6.23,60,38,3.29,JP,1678820757
61,katobu,-4.9408,122.5276,23.84,92,100,0.71,ID,1678820757
62,taft,31.7471,54.2088,13.97,63,75,2.06,IR,1678820485
63,salekhard,66.53,66.6019,-5.88,82,55,6.99,RU,1678820758
64,esperance,-33.8667,121.9,17.86,86,41,3.0,AU,1678820488
65,geraldton,-28.7667,114.6,18.23,88,0,4.63,AU,1678820759
66,chicama,-7.8447,-79.1469,30.3,62,95,2.3,PE,1678820759
67,arlit,18.7369,7.3853,28.72,9,0,4.17,NE,1678820759
68,chistogorskiy,53.9835,87.3843,-5.84,100,99,0.8,RU,1678820760
69,new norfolk,-42.7826,147.0587,14.28,68,100,0.89,AU,1678820760
70,georgetown,5.4112,100.3354,26.97,76,20,2.68,MY,1678820732
71,bluff,-46.6,168.3333,12.67,71,75,6.17,NZ,1678820761
72,mar del plata,-38.0023,-57.5575,33.79,89,75,5.14,AR,1678820761
73,liwale,-9.7667,37.9333,21.5,77,41,1.51,TZ,1678820762
74,provideniya,64.3833,-173.3,-21.34,84,22,4.62,RU,1678820762
75,poya,-21.35,165.15,23.53,82,35,2.72,NC,1678820763
76,pacific grove,36.6177,-121.9166,16.47,83,100,11.18,US,1678820764
77,dong hoi,17.4833,106.6,19.32,93,38,1.75,VN,1678820764
78,san policarpo,12.1791,125.5072,26.21,84,100,4.22,PH,1678820765
79,luanda,-8.8368,13.2343,26.63,80,80,5.04,AO,1678820604
80,ribeira grande,38.5167,-28.7,16.54,94,75,8.94,PT,1678820541
81,san ramon,37.7799,-121.978,17.09,84,75,10.29,US,1678820766
82,chuy,-33.6971,-53.4616,30.04,59,0,6.14,UY,1678820767
83,cabo san lucas,22.8909,-109.9124,32.61,40,0,3.09,MX,1678820767
84,lobva,59.1854,60.5185,-5.3,85,7,3.68,RU,1678820768
85,barcelos,41.5388,-8.6151,14.08,89,61,0.61,PT,1678820769
86,cape town,-33.9258,18.4232,21.73,88,20,10.29,ZA,1678820044
87,samarai,-10.6167,150.6667,27.18,79,71,1.5,PG,1678820769
88,tarauaca,-8.1614,-70.7656,23.96,91,99,2.15,BR,1678820770
89,barrow,71.2906,-156.7887,-28.99,69,0,3.6,US,1678820771
90,goma,-1.6792,29.2228,17.67,92,100,1.01,CD,1678820771
91,hofn,64.2539,-15.2082,-6.27,60,17,11.59,IS,1678820772
92,half moon bay,37.4636,-122.4286,17.21,89,100,1.79,US,1678820772
93,east london,-33.0153,27.9116,22.52,88,75,2.57,ZA,1678820773
94,college,64.8569,-147.8028,-16.22,73,75,1.54,US,1678820774
95,ambagarh chauki,20.7833,80.7167,24.33,30,93,2.52,IN,1678820774
96,ballia,25.7557,84.1503,22.39,27,70,2.87,IN,1678820775
97,qaanaaq,77.484,-69.3632,-13.83,71,100,1.97,GL,1678820775
98,daru,-9.0763,143.2092,26.13,86,100,3.49,PG,1678820776
99,arraial do cabo,-22.9661,-42.0278,29.98,62,20,6.17,BR,1678820571
100,olivenza,38.6832,-7.103,16.48,72,12,1.94,ES,1678820777
101,nsanje,-16.92,35.262,19.84,99,100,1.87,MW,1678820777
102,zhigansk,66.7697,123.3711,-22.11,100,100,4.44,RU,1678820778
103,laguna,38.421,-121.4238,16.21,87,100,14.4,US,1678820778
104,airai,-8.9266,125.4092,14.33,84,6,0.86,TL,1678820779
105,basco,20.4487,121.9702,23.01,76,58,4.76,PH,1678820779
106,saskylakh,71.9167,114.0833,-26.15,99,74,3.76,RU,1678820780
107,sinnamary,5.3833,-52.95,26.89,70,66,5.13,GF,1678820780
108,landeck,47.1301,10.5636,2.01,98,100,1.0,AT,1678820781
109,porgera,-5.4667,143.2,6.29,98,100,0.59,PG,1678820781
110,chapais,49.7834,-74.8492,-1.12,80,100,4.95,CA,1678820597
111,albany,42.6001,-73.9662,1.47,92,100,1.34,US,1678820580
112,severo-yeniseyskiy,60.3725,93.0408,-6.33,97,100,1.67,RU,1678820782
113,hithadhoo,-0.6,73.0833,27.6,78,95,3.8,MV,1678820783
114,eenhana,-17.4667,16.3333,26.7,26,58,2.38,NA,1678820784
115,yar-sale,66.8333,70.8333,-6.68,87,19,9.3,RU,1678820784
116,nikolskoye,59.7035,30.7861,4.95,99,100,5.14,RU,1678820785
117,gat,31.61,34.7642,14.67,100,100,1.67,IL,1678820785
118,haverfordwest,51.8017,-4.9691,6.43,89,18,0.45,GB,1678820786
119,bose,45.4612,8.0137,10.69,61,0,3.48,IT,1678820786
120,port alfred,-33.5906,26.891,21.77,92,21,1.51,ZA,1678820787
121,butaritari,3.0707,172.7902,27.78,74,8,6.87,KI,1678820788
122,bethel,41.3712,-73.414,2.33,85,100,7.72,US,1678820789
123,torbay,47.6666,-52.7314,2.44,75,20,6.69,CA,1678820768
124,haapiti,-17.5667,-149.8667,28.85,76,49,1.34,PF,1678820790
125,luderitz,-26.6481,15.1594,17.12,86,0,6.43,NA,1678820790
126,kodiak,57.79,-152.4072,-3.27,54,40,2.57,US,1678820791
127,axim,4.8699,-2.2405,27.53,81,21,4.71,GH,1678820792
128,bara,10.3744,10.7288,28.48,9,4,3.4,NG,1678820754
129,moranbah,-22.0016,148.0466,24.07,82,13,0.87,AU,1678820793
130,lusambo,-4.9667,23.45,20.94,99,100,0.32,CD,1678820793
131,alugan,12.2188,125.4808,25.98,85,100,4.02,PH,1678820794
132,muroto,33.2833,134.15,12.02,55,0,0.73,JP,1678820794
133,belmonte,-15.8631,-38.8828,27.63,66,62,3.44,BR,1678820794
134,sijunjung,-0.6876,100.9537,21.4,97,96,0.46,ID,1678820795
135,khatanga,71.9667,102.5,-16.98,86,100,3.2,RU,1678820795
136,barreirinhas,-2.7469,-42.8264,27.64,81,100,2.02,BR,1678820796
137,chaman,30.9236,66.4512,18.76,19,100,1.93,PK,1678820796
138,nemuro,43.3236,145.575,-0.55,72,5,7.39,JP,1678820796
139,rocha,-34.4833,-54.3333,33.8,40,0,7.46,UY,1678820797
140,lompoc,34.6391,-120.4579,14.73,84,100,13.86,US,1678820797
141,tabou,4.423,-7.3528,27.11,81,4,3.71,CI,1678820798
142,metu,8.3,35.5833,15.73,71,36,1.22,ET,1678820799
143,ixtapa,20.7,-105.2,26.57,65,20,5.66,MX,1678820800
144,kysyl-syr,63.8986,122.7617,-19.66,100,100,2.74,RU,1678820800
145,margate,51.3813,1.3862,5.62,82,100,0.45,GB,1678820801
146,lavumisa,-27.31,31.892,20.19,97,15,0.65,SZ,1678820801
147,norfolk,42.1668,-71.2495,3.27,93,100,10.29,US,1678820802
148,tahoua,14.8888,5.2692,33.99,7,0,3.09,NE,1678820542
149,urumqi,43.801,87.6005,2.53,93,0,2.0,CN,1678820802
150,aklavik,68.2191,-135.0107,-26.0,76,75,2.57,CA,1678820596
151,venice,27.0998,-82.4543,26.26,48,0,7.2,US,1678820592
152,zhuanghe,39.7008,122.9911,4.91,45,100,5.74,CN,1678820803
153,ambilobe,-13.2,49.05,23.22,94,100,0.99,MG,1678820803
154,sept-iles,50.2001,-66.3821,2.81,75,75,6.17,CA,1678820642
155,avera,33.194,-82.5271,12.53,29,0,4.84,US,1678820804
156,bousso,10.4795,16.7117,30.28,9,4,2.8,TD,1678820804
157,tezu,27.9167,96.1667,22.43,34,98,2.21,IN,1678820804
158,keti bandar,24.1447,67.4497,24.84,67,100,4.78,PK,1678820805
159,huarmey,-10.0681,-78.1522,24.8,84,100,1.98,PE,1678820805
160,sagar,23.8333,78.7167,24.09,24,5,1.1,IN,1678820806
161,vangaindrano,-23.35,47.6,22.45,89,100,1.12,MG,1678820806
162,haines junction,60.7522,-137.5108,-15.62,91,100,0.43,CA,1678820807
163,sandwick,60.0,-1.25,2.9,60,40,14.92,GB,1678820807
164,sohbatpur,28.5202,68.5434,25.78,14,100,3.33,PK,1678820544
165,ust-kan,50.9276,84.761,-5.07,72,10,1.78,RU,1678820808
166,la orilla,17.9833,-102.2333,29.1,53,0,4.44,MX,1678820808
167,barauna,-5.08,-37.6167,34.5,57,100,3.37,BR,1678820609
168,pingshan,22.9938,114.7131,16.06,85,32,1.74,CN,1678820809
169,mut,36.6439,33.4389,13.01,71,100,1.85,TR,1678820809
170,flin flon,54.7682,-101.865,-5.11,92,100,5.66,CA,1678820810
171,xuddur,4.1213,43.8894,26.11,68,70,7.43,SO,1678820810
172,cachoeira do sul,-30.0392,-52.8939,30.61,48,100,3.88,BR,1678820811
173,lata,40.1629,-8.3327,10.29,87,8,1.6,PT,1678820811
174,agadez,19.75,10.25,24.81,15,0,2.36,NE,1678820812
175,homer,59.6425,-151.5483,-6.07,52,0,5.81,US,1678820681
176,yulara,-25.2406,130.9889,23.93,25,4,3.3,AU,1678820813
177,ponta do sol,32.6667,-17.1,19.84,76,17,2.52,PT,1678820813
178,coahuayana,18.7333,-103.6833,31.48,45,0,3.74,MX,1678820813
179,san cristobal,7.7669,-72.225,29.1,43,49,3.19,VE,1678820814
180,buluang,13.3068,123.3425,22.43,95,100,1.42,PH,1678820814
181,inirida,3.8653,-67.9239,34.26,40,56,0.75,CO,1678820815
182,sambava,-14.2667,50.1667,25.31,83,96,4.7,MG,1678820815
183,odweyne,9.4092,45.064,25.24,54,57,2.43,SO,1678820816
184,batemans bay,-35.7167,150.1833,18.39,93,100,1.81,AU,1678820816
185,phalodi,27.1333,72.3667,26.26,16,100,2.24,IN,1678820817
186,korla,41.7597,86.1469,8.09,51,8,5.77,CN,1678820817
187,souillac,-20.5167,57.5167,25.23,73,93,6.84,MU,1678820818
188,dauriya,49.9333,116.8667,-9.51,92,100,3.92,RU,1678820818
189,limbang,4.75,115.0,27.06,95,31,0.89,MY,1678820818
190,derzhavinsk,51.1,66.3167,-1.95,93,100,10.33,KZ,1678820819
191,shubarshi,48.5872,57.1869,-1.3,64,25,5.99,KZ,1678820819
192,namatanai,-3.6667,152.4333,25.84,82,100,0.98,PG,1678820820
193,rorvik,64.8621,11.2373,-1.94,93,75,2.06,NO,1678820820
194,murray bridge,-35.1167,139.2667,15.74,79,86,1.23,AU,1678820821
195,corralillo,22.9819,-80.5856,27.81,61,100,4.77,CU,1678820771
196,jerez,14.1,-89.75,35.71,24,11,0.52,GT,1678820823
197,lorengau,-2.0226,147.2712,26.62,80,18,2.31,PG,1678820824
198,taoudenni,22.6783,-3.9836,30.94,7,23,4.23,ML,1678820825
199,la ronge,55.1001,-105.2842,-6.44,95,100,5.96,CA,1678820826
200,atambua,-9.1061,124.8925,21.78,85,27,1.15,ID,1678820826
201,nanortalik,60.1432,-45.2371,-2.07,75,16,3.09,GL,1678820827
202,tasiilaq,65.6145,-37.6368,-8.91,73,81,1.81,GL,1678820828
203,bilma,18.6853,12.9164,27.07,11,0,3.52,NE,1678820829
204,ilulissat,69.2167,-51.1,-6.99,49,75,2.57,GL,1678820829
205,neuchatel,46.9167,6.8333,5.7,78,75,6.17,CH,1678820830
206,lethem,3.3803,-59.7968,34.95,23,100,4.01,GY,1678820830
207,churapcha,62.0025,132.4325,-7.89,92,36,4.81,RU,1678820831
208,san quintin,30.4833,-115.95,18.83,63,90,4.46,MX,1678820831
209,mogok,22.9167,96.5,17.53,45,100,1.27,MM,1678820832
210,sao joao da barra,-21.6403,-41.0511,30.05,76,0,5.02,BR,1678820833
211,kaitangata,-46.2817,169.8464,12.26,92,100,2.0,NZ,1678820833
212,yerbogachen,61.2767,108.0108,-26.68,100,100,0.12,RU,1678820834
213,clyde river,70.4692,-68.5914,-23.22,93,77,0.56,CA,1678820835
214,hamilton,39.1834,-84.5333,2.35,59,100,4.12,US,1678820572
215,quatre cocos,-20.2078,57.7625,25.61,75,66,6.89,MU,1678820835
216,tatarbunary,45.8373,29.6142,4.44,70,48,3.84,UA,1678820836
217,cayenne,4.9333,-52.3333,27.02,78,75,3.6,GF,1678820836
218,isangel,-19.55,169.2667,25.68,91,100,3.99,VU,1678820837
219,dunedin,-45.8742,170.5036,14.33,70,100,1.34,NZ,1678820743
220,port hedland,-20.3167,118.5667,26.03,100,0,3.09,AU,1678820838
221,cividale del friuli,46.0931,13.4275,10.77,95,100,1.36,IT,1678820839
222,waingapu,-9.6567,120.2641,24.58,82,11,1.69,ID,1678820839
223,constitucion,-35.3333,-72.4167,19.9,50,0,4.63,CL,1678820841
224,kahului,20.8947,-156.47,26.01,79,20,8.75,US,1678820841
225,north bend,43.4065,-124.2243,6.2,84,0,2.06,US,1678820711
226,moa,20.6569,-74.9403,29.09,53,26,2.83,CU,1678820842
227,ocher,57.8904,54.7202,-3.87,85,100,6.16,RU,1678820842
228,bisira,8.5196,-81.7115,19.82,79,100,0.64,PA,1678820843
229,amapa,1.0,-52.0,25.7,91,100,1.5,BR,1678820843
230,carballo,43.213,-8.691,13.34,85,53,1.87,ES,1678820683
231,puerto ayora,-0.7393,-90.3518,30.98,84,65,3.13,EC,1678820844
232,mogadishu,2.0371,45.3438,27.03,82,92,6.4,SO,1678820844
233,dwarka,22.2394,68.9678,25.07,69,100,6.6,IN,1678820845
234,sorland,67.667,12.6934,-0.08,57,100,8.33,NO,1678820846
235,dotnuva,55.35,23.9,8.27,92,100,5.41,LT,1678820846
236,port-cartier,50.0334,-66.8654,2.64,92,100,4.99,CA,1678820847
237,ola,59.5833,151.2833,-8.58,93,100,3.83,RU,1678820847
238,flinders,-34.5833,150.8552,17.88,93,100,2.24,AU,1678820848
239,upernavik,72.7868,-56.1549,-17.54,85,100,1.33,GL,1678820848
240,eureka,40.8021,-124.1637,10.34,97,100,4.47,US,1678820849
241,hualmay,-11.0964,-77.6139,24.38,82,99,1.57,PE,1678820849
242,tocopilla,-22.092,-70.1979,22.82,72,6,1.94,CL,1678820850
243,north branch,45.5113,-92.9802,1.15,53,72,2.24,US,1678820850
244,san esteban,15.2,-85.75,37.5,37,86,2.69,HN,1678820851
245,lere,10.387,8.5726,26.26,11,2,2.86,NG,1678820851
246,melo,-32.3667,-54.1833,37.75,23,44,4.48,UY,1678820851
247,seymchan,62.8833,152.4333,-15.91,99,100,0.48,RU,1678820852
248,valley city,46.9233,-98.0032,-5.71,86,0,8.75,US,1678820853
249,castro,-24.7911,-50.0119,20.26,94,100,2.8,BR,1678820853
250,lebu,-37.6167,-73.65,17.76,68,30,4.85,CL,1678820854
251,melita,49.2681,-100.9967,-1.92,89,20,7.95,CA,1678820854
252,salalah,17.0151,54.0924,24.25,61,7,0.63,OM,1678820854
253,sitka,57.0531,-135.33,1.94,48,0,4.12,US,1678820855
254,cabinda,-5.55,12.2,26.44,86,100,2.42,AO,1678820855
255,prince rupert,54.3161,-130.3201,3.38,70,100,3.32,CA,1678820856
256,panzhihua,26.5851,101.7128,13.47,50,0,0.58,CN,1678820857
257,kununurra,-15.7667,128.7333,27.99,44,39,4.12,AU,1678820858
258,timizart,36.8,4.2667,10.93,84,53,1.85,DZ,1678820859
259,vila velha,-20.3297,-40.2925,27.97,78,20,5.66,BR,1678820836
260,kodinar,20.7903,70.7031,26.24,55,93,3.75,IN,1678820859
261,tautira,-17.7333,-149.15,27.44,72,31,2.27,PF,1678820860
262,saint-philippe,-21.3585,55.7679,25.77,81,39,5.59,RE,1678820860
263,jonesboro,35.8423,-90.7043,7.33,55,12,2.62,US,1678820758
264,sholokhovskiy,48.2807,41.0459,3.45,52,63,6.32,RU,1678820861
265,chokurdakh,70.6333,147.9167,-27.86,100,56,2.45,RU,1678820862
266,megion,61.0296,76.1136,-0.99,99,100,3.36,RU,1678820862
267,kifri,34.6959,44.9661,18.16,63,0,1.75,IQ,1678820863
268,ipixuna,-1.7625,-48.8043,23.47,97,100,1.37,BR,1678820863
269,nara,34.6851,135.8049,7.67,51,0,1.34,JP,1678820698
270,honolulu,21.3069,-157.8583,25.73,91,75,2.57,US,1678820334
271,metro,-5.1131,105.3067,23.0,94,96,2.34,ID,1678820734
272,dingle,10.9995,122.6711,24.34,79,100,2.64,PH,1678820864
273,pontianak,-0.0333,109.3333,23.99,100,100,1.54,ID,1678820864
274,muzaffarabad,34.37,73.4711,16.67,45,19,2.68,PK,1678820865
275,singapore,1.2897,103.8501,25.02,86,75,3.6,SG,1678820392
276,brewster,41.3973,-73.6171,2.18,93,100,7.72,US,1678820865
277,jardim,-21.4803,-56.1381,25.86,91,100,2.86,BR,1678820614
278,caravelas,-17.7125,-39.2481,27.61,66,70,3.81,BR,1678820817
279,bambous virieux,-20.3428,57.7575,25.68,74,79,6.9,MU,1678820867
280,matara,5.9485,80.5353,24.72,87,85,3.86,LK,1678820867
281,tilichiki,60.4667,166.1,-18.44,96,87,2.55,RU,1678820868
282,castle rock,39.3722,-104.8561,14.6,20,100,3.13,US,1678820426
283,simbahan,6.3032,120.5836,26.88,76,99,5.51,PH,1678820870
284,vanimo,-2.6741,141.3028,24.06,87,100,1.0,PG,1678820870
285,ust-uda,54.1742,103.0304,-12.49,98,100,1.13,RU,1678820871
286,toktogul,41.8708,72.9402,2.94,70,1,1.95,KG,1678820871
287,san-pedro,4.7485,-6.6363,27.23,81,4,3.49,CI,1678820872
288,vila franca do campo,37.7167,-25.4333,17.23,91,100,9.04,PT,1678820872
289,thompson,55.7435,-97.8558,-14.91,78,100,7.2,CA,1678820873
290,quartz hill,34.6453,-118.2181,13.07,82,100,8.94,US,1678820873
291,severo-kurilsk,50.6789,156.125,-0.55,96,86,7.77,RU,1678820874
292,surt,31.2089,16.5887,16.28,61,13,5.35,LY,1678820874
293,malpe,13.35,74.7167,28.61,80,45,0.56,IN,1678820875
294,khorramshahr,30.4397,48.1664,19.97,70,0,3.47,IR,1678820875
295,bosconia,9.9689,-73.8836,33.55,42,97,1.53,CO,1678820876
296,hami,42.8,93.45,7.49,43,38,1.49,CN,1678820876
297,orje,59.4802,11.6602,-2.7,94,27,1.04,NO,1678820877
298,fairbanks,64.8378,-147.7164,-16.21,72,75,1.54,US,1678820819
299,la romana,18.4273,-68.9728,28.2,83,75,3.09,DO,1678820878
300,zhurivka,50.5028,31.7849,6.4,46,90,8.41,UA,1678820878
301,honiara,-9.4333,159.95,25.1,89,47,0.64,SB,1678820775
302,portoferraio,42.8115,10.3146,16.43,76,51,6.64,IT,1678820879
303,kutum,14.2,24.6667,22.86,13,32,5.58,SD,1678820880
304,iqaluit,63.7506,-68.5145,-17.95,84,72,0.89,CA,1678820880
305,krasnyy chikoy,50.3643,108.7512,-17.0,99,90,1.24,RU,1678820881
306,waipawa,-41.4122,175.5153,9.83,75,5,1.34,NZ,1678820881
307,acarau,-2.8856,-40.12,27.45,74,100,2.3,BR,1678820882
308,vung tau,10.346,107.0843,24.22,80,14,9.29,VN,1678820882
309,migori,-1.0634,34.4731,16.79,95,100,1.65,KE,1678820884
310,ulladulla,-35.35,150.4667,17.65,91,99,1.47,AU,1678820884
311,olinda,-8.0089,-34.8553,28.85,65,20,4.63,BR,1678820885
312,gizeh,30.0081,31.2109,15.41,61,2,6.77,EG,1678820886
313,kuito,-12.3833,16.9333,19.43,64,99,0.96,AO,1678820886
314,vardo,70.3705,31.1107,-1.01,64,40,5.14,NO,1678820595
315,mahebourg,-20.4081,57.7,25.7,73,86,7.01,MU,1678820887
316,goianesia,-15.3175,-49.1175,21.0,93,100,0.54,BR,1678820874
317,miraflores,19.2167,-98.8083,23.36,25,32,1.95,MX,1678820888
318,antsohihy,-14.8796,47.9875,23.08,97,100,1.92,MG,1678820890
319,port lincoln,-34.7333,135.8667,17.47,83,18,2.19,AU,1678820890
320,cherdyn,60.403,56.4787,-5.96,91,100,4.19,RU,1678820891
321,florianopolis,-27.6146,-48.5012,28.96,76,40,4.63,BR,1678820892
322,barra patuca,15.8,-84.2833,29.66,64,11,6.72,HN,1678820892
323,alofi,-19.0595,-169.9187,24.94,100,40,2.06,NU,1678820894
324,okhotsk,59.3833,143.3,-1.29,96,100,10.03,RU,1678820894
325,harper,4.375,-7.7169,27.14,80,7,3.41,LR,1678820895
326,brae,60.3964,-1.353,1.91,72,100,15.49,GB,1678820895
327,sioux lookout,50.1001,-91.917,-1.26,73,97,5.23,CA,1678820896
328,venado tuerto,-33.7456,-61.9688,33.31,34,100,4.97,AR,1678820897
329,high prairie,55.4334,-116.4858,-7.98,84,97,2.04,CA,1678820897
330,baykit,61.67,96.37,-13.06,96,100,1.29,RU,1678820897
331,cap-aux-meules,47.3821,-61.8597,1.03,75,75,6.17,CA,1678820644
332,upington,-28.4478,21.2561,25.57,41,100,5.65,ZA,1678820898
333,nacala,-14.5428,40.6728,22.86,95,100,2.68,MZ,1678820899
334,durango,24.8333,-104.8333,21.57,15,0,0.73,MX,1678820498
335,husavik,66.0449,-17.3389,-7.69,78,100,6.95,IS,1678820899
336,oriximina,-1.7656,-55.8661,30.48,55,88,0.59,BR,1678820900
337,oga,46.4631,10.347,2.76,95,100,3.2,IT,1678820900
338,beba,22.4437,-79.7253,33.15,38,71,3.54,CU,1678820901
339,saint-pierre,-21.3393,55.4781,25.82,65,0,8.75,RE,1678820901
340,mahon,39.8885,4.2658,12.31,66,20,2.57,ES,1678820902
341,klaksvik,62.2266,-6.589,-0.49,68,100,12.31,FO,1678820902
342,bayburt,40.2589,40.2278,4.21,91,100,2.81,TR,1678820903
343,abu samrah,35.3029,37.1841,10.1,93,100,2.91,SY,1678820903
344,svetlogorsk,52.6333,29.7333,6.64,58,83,9.03,BY,1678820904
345,xining,36.6167,101.7667,-0.31,66,77,0.32,CN,1678820904
346,olafsvik,64.8945,-23.7142,-5.72,60,100,10.12,IS,1678820905
347,codrington,-38.2667,141.9667,13.09,92,32,0.43,AU,1678820905
348,victor harbor,-35.5667,138.6167,15.93,81,54,1.97,AU,1678820906
349,tiksi,71.6872,128.8694,-21.07,100,76,2.81,RU,1678820906
350,necochea,-38.5473,-58.7368,29.81,55,93,5.55,AR,1678820907
351,batticaloa,7.7102,81.6924,25.8,81,100,1.09,LK,1678820745
352,grants,35.1473,-107.8514,11.13,37,0,2.06,US,1678820908
353,kidal,18.4411,1.4078,31.69,9,7,2.86,ML,1678820908
354,tingi,-11.3,35.0333,17.53,96,100,1.55,TZ,1678820909
355,poanas,25.7667,-103.6167,24.96,23,0,1.89,MX,1678820909
356,fortuna,40.5982,-124.1573,10.19,98,75,4.12,US,1678820910
357,itupiranga,-5.1347,-49.3267,32.18,86,100,1.04,BR,1678820910
358,krasnoselkup,65.7,82.4667,-1.71,97,100,7.58,RU,1678820911
359,kirensk,57.7853,108.1119,-24.02,100,58,1.18,RU,1678820912
360,tual,-5.6667,132.75,27.74,72,100,1.52,ID,1678820912
361,guarda,40.5373,-7.2658,8.46,79,100,2.12,PT,1678820913
362,funes,-32.9157,-60.81,25.95,83,40,5.14,AR,1678820913
363,batagay,67.6333,134.6333,-26.24,100,100,0.31,RU,1678820914
364,orotukan,62.2667,151.7,-8.87,85,100,4.21,RU,1678820914
365,longyearbyen,78.2186,15.6401,-18.09,65,0,5.66,SJ,1678820878
366,mayo,38.8876,-76.5119,7.34,39,0,11.32,US,1678820915
367,ust-omchug,61.15,149.6333,-13.17,97,100,1.58,RU,1678820916
368,surgut,61.25,73.4167,-1.9,92,75,3.13,RU,1678820916
369,kigorobya,1.6162,31.3089,19.73,73,100,1.17,UG,1678820917
370,kindu,-2.95,25.95,20.22,98,100,1.08,CD,1678820918
371,praia da vitoria,38.7333,-27.0667,15.98,98,100,13.0,PT,1678820918
372,ponta delgada,37.7333,-25.6667,17.4,94,40,7.72,PT,1678820918
373,malinyi,-8.9333,36.1333,22.22,96,100,1.76,TZ,1678820919
374,barcelona,41.3888,2.159,17.33,61,20,7.72,ES,1678820637
375,onda,39.9667,-0.25,16.75,33,50,1.23,ES,1678820919
376,ugoofaaru,5.6667,73.0,27.67,79,6,4.83,MV,1678820920
377,umm lajj,25.0213,37.2685,24.34,40,0,6.53,SA,1678820920
378,maarianhamina,60.0973,19.9348,-0.1,100,100,2.06,AX,1678820921
379,puro,12.4841,123.3827,24.6,86,100,2.87,PH,1678820921
380,wattegama,6.7989,81.4808,22.98,89,100,1.45,LK,1678820921
381,havoysund,70.9963,24.6622,-3.87,78,100,9.85,NO,1678820922
382,biltine,14.5333,20.9167,27.75,10,0,4.96,TD,1678820922
383,batie,9.8833,-2.9167,33.27,13,65,1.76,BF,1678820922
384,lasa,46.6166,10.7002,6.87,94,100,3.46,IT,1678820923
385,biak,-0.9131,122.8766,23.98,85,100,0.33,ID,1678820923
386,blagodatnoye,45.3997,42.5867,3.51,56,97,9.3,RU,1678820924
387,ketchikan,55.3422,-131.6461,1.26,86,100,1.54,US,1678820924
388,saldanha,-33.0117,17.9442,19.14,93,12,7.44,ZA,1678820925
389,mamallapuram,12.6264,80.1722,28.03,79,0,3.44,IN,1678820925
390,gazojak,41.1875,61.4036,17.49,32,4,2.91,TM,1678820926
391,mount gambier,-37.8333,140.7667,12.21,95,100,0.91,AU,1678820926
392,bubaque,11.2833,-15.8333,25.42,78,19,7.22,GW,1678820926
393,grindavik,63.8424,-22.4338,-4.74,63,40,8.75,IS,1678820927
394,faya,18.3851,42.4509,13.29,69,43,2.09,SA,1678820927
395,umm kaddadah,13.6017,26.6876,25.24,12,9,6.08,SD,1678820928
396,rio pardo,-29.9897,-52.3781,30.64,49,100,4.3,BR,1678820928
397,cairns,-16.9167,145.7667,23.97,100,18,0.0,AU,1678820929
398,verkhnevilyuysk,63.4453,120.3167,-23.15,100,100,1.75,RU,1678820929
399,comodoro rivadavia,-45.8667,-67.5,26.92,24,0,7.2,AR,1678820929
400,nezhinka,51.7676,55.3694,-7.91,86,0,1.79,RU,1678820930
401,tuatapere,-46.1333,167.6833,11.02,89,89,1.46,NZ,1678820930
402,camocim,-2.9022,-40.8411,27.42,76,100,2.43,BR,1678820762
403,kovdor,67.5662,30.4758,-7.04,96,100,2.83,RU,1678820930
404,buenos aires,-34.6132,-58.3772,36.08,37,100,3.85,AR,1678820640
405,ravar,31.2656,56.8055,16.61,51,94,1.92,IR,1678820931
406,ukiah,39.1502,-123.2078,14.5,93,100,7.2,US,1678820931
407,wanaka,-44.7,169.15,8.39,91,0,0.89,NZ,1678820719
408,sari,36.5633,53.0601,11.44,83,98,2.36,IR,1678820932
409,madrid,40.4165,-3.7026,14.53,47,0,4.63,ES,1678820428
410,saint anthony,45.0205,-93.218,1.07,60,0,6.69,US,1678820932
411,takoradi,4.8845,-1.7554,27.76,79,26,5.47,GH,1678820646
412,makokou,0.5738,12.8642,21.37,98,100,1.62,GA,1678820934
413,carbonia,39.1672,8.5222,13.89,81,5,7.62,IT,1678820934
414,sliema,35.9125,14.5019,16.64,94,20,5.14,MT,1678820904
415,goundam,16.4145,-3.6708,31.9,11,53,0.63,ML,1678820935
416,kabompo,-13.5927,24.2008,18.96,92,100,2.04,ZM,1678820935
417,korem,12.5058,39.5228,13.3,90,88,2.59,ET,1678820936
418,dali,25.7,100.1833,8.8,57,4,2.51,CN,1678820936
419,la palma,33.8464,-118.0467,16.8,91,100,1.54,US,1678820937
420,caucaia,-3.7361,-38.6531,25.02,87,75,1.03,BR,1678820938
421,irbeyskoye,55.6428,95.4522,-3.16,98,100,1.33,RU,1678820938
422,meghri,38.9029,46.2446,10.49,84,62,2.92,AM,1678820938
423,sterling,39.0062,-77.4286,5.76,42,75,12.35,US,1678820939
424,svetlyy,54.675,20.1347,11.03,88,100,7.08,RU,1678820939
425,nerchinskiy zavod,51.3088,119.61,-12.63,93,100,2.65,RU,1678820940
426,lucapa,-8.4192,20.7447,19.03,98,100,1.68,AO,1678820940
427,petropavlovsk-kamchatskiy,53.0452,158.6483,-2.67,74,75,4.0,RU,1678820940
428,tupik,54.4253,119.9327,-22.68,95,18,1.12,RU,1678820941
429,delta del tigre,-34.7633,-56.3853,34.23,43,40,7.2,UY,1678820941
430,roanoke,37.271,-79.9414,4.47,51,75,9.77,US,1678820848
431,aalten,51.9167,6.5833,5.53,67,85,3.75,NL,1678820942
432,sayyan,15.1718,44.3244,14.41,71,16,1.01,YE,1678820943
433,arroyo,41.6096,-4.7969,12.55,61,0,5.14,ES,1678820943
434,sao felix do xingu,-6.6447,-51.995,25.72,93,73,1.48,BR,1678820944
435,port augusta,-32.5,137.7667,20.81,44,5,1.79,AU,1678820944
436,kirgiz-miyaki,53.6324,54.7979,-9.12,97,50,2.48,RU,1678820945
437,shingu,33.7333,135.9833,6.98,61,0,2.11,JP,1678820945
438,havre-saint-pierre,50.2334,-63.5986,-0.02,77,100,6.37,CA,1678820946
439,hvide sande,56.0045,8.1294,3.38,64,100,10.03,DK,1678820946
440,manokwari,-0.8667,134.0833,24.86,81,100,2.01,ID,1678820947
441,kayankulam,9.1833,76.5,24.46,82,0,1.7,IN,1678820947
442,puerto suarez,-18.95,-57.8,30.31,66,40,3.6,BO,1678820948
443,bud,39.447,-86.1758,4.3,57,5,5.49,US,1678820948
444,cherskiy,68.75,161.3,-18.01,88,100,2.99,RU,1678820949
445,los llanos de aridane,28.6585,-17.9182,18.86,73,0,5.66,ES,1678820949
446,acajutla,13.5928,-89.8275,29.91,63,5,5.14,SV,1678820949
447,champerico,14.3,-91.9167,34.3,63,0,5.93,GT,1678820950
448,byron bay,-28.65,153.6167,20.95,92,31,2.05,AU,1678820676
449,yumen,40.2833,97.2,1.81,42,100,5.04,CN,1678820951
450,mineiros,-17.5694,-52.5511,23.84,81,100,3.75,BR,1678820934
451,ruteng,-8.6136,120.4721,15.69,92,10,0.41,ID,1678820952
452,nha trang,12.25,109.1833,23.0,93,49,2.66,VN,1678820952
453,imbituba,-28.24,-48.6703,26.8,75,100,6.04,BR,1678820953
454,oktyabrskoye,43.0645,44.7417,2.08,86,100,5.0,RU,1678820953
455,ancud,-41.8697,-73.8203,13.9,93,100,10.04,CL,1678820954
456,namibe,-15.1961,12.1522,22.86,77,94,2.31,AO,1678820954
457,iquique,-20.2208,-70.1431,24.02,71,27,1.77,CL,1678820955
458,otane,-39.8833,176.6333,11.12,85,0,0.98,NZ,1678820956
459,porto novo,6.4965,2.6036,28.25,76,0,4.25,BJ,1678820956
460,itapirapua,-15.8233,-50.6133,22.72,94,100,0.42,BR,1678820957
461,san patricio,28.017,-97.5169,19.93,65,100,6.75,US,1678820957
462,tayoltita,24.0833,-105.9333,28.58,19,0,3.47,MX,1678820958
463,pahalgam,34.0333,75.3333,1.67,54,99,4.62,IN,1678820959
464,zdvinsk,54.7021,78.661,-11.1,89,13,3.21,RU,1678820959
465,xichang,27.8964,102.2634,11.03,52,32,0.65,CN,1678820960
466,dalnerechensk,45.9339,133.7225,-1.26,92,100,4.06,RU,1678820961
467,sur,22.5667,59.5289,25.92,56,74,1.94,OM,1678820962
468,ascension,30.2169,-90.9001,17.28,42,0,4.63,US,1678820962
469,lumphat,13.4878,106.9816,21.98,67,100,3.19,KH,1678820963
470,peachland,49.7665,-119.7357,6.19,54,100,0.89,CA,1678820669
471,villazon,-22.0866,-65.5942,18.43,37,72,4.54,BO,1678820964
472,okha,53.5739,142.9478,-11.2,91,12,4.09,RU,1678820965
473,awjilah,29.1081,21.2869,16.56,40,0,1.57,LY,1678820965
474,kismayo,-0.3582,42.5454,26.07,83,80,6.32,SO,1678820966
475,ampanihy,-24.7,44.75,23.23,77,100,2.48,MG,1678820967
476,nueva guinea,11.6876,-84.4562,28.76,66,96,3.33,NI,1678820967
477,westport,41.1415,-73.3579,2.75,89,100,9.26,US,1678820706
478,rio cuarto,-33.1307,-64.3499,28.6,60,100,4.45,AR,1678820956
479,coquimbo,-29.9533,-71.3436,21.85,68,75,4.12,CL,1678820968
480,dargaville,-35.9333,173.8833,13.04,85,100,1.2,NZ,1678820969
481,smirnykh,49.75,142.8333,-10.85,94,100,0.59,RU,1678820970
482,nuuk,64.1835,-51.7216,-0.66,55,75,3.09,GL,1678820970
483,broome,42.2506,-75.833,-0.51,84,100,7.72,US,1678820971
484,nakuru,-0.2833,36.0667,18.67,68,100,0.56,KE,1678820971
485,qasigiannguit,68.8193,-51.1922,-6.86,78,100,0.94,GL,1678820972
486,karratha,-20.7377,116.8463,28.34,70,0,2.93,AU,1678820972
487,redlands,34.0556,-117.1825,15.99,85,100,2.06,US,1678820926
488,angoche,-16.2325,39.9086,23.77,87,100,5.75,MZ,1678820973
489,matiri,-10.75,34.9,16.74,96,100,0.48,TZ,1678820973
490,meulaboh,4.1363,96.1285,25.36,84,100,1.2,ID,1678820974
491,benxi,41.2886,123.765,2.18,31,100,3.93,CN,1678820974
492,hit,33.6416,42.8251,20.89,51,0,6.56,IQ,1678820975
493,claremont,34.0967,-117.7198,15.7,87,75,3.09,US,1678820771
494,ayr,55.4627,-4.6339,1.84,86,20,1.54,GB,1678820975
495,tabuk,17.4189,121.4443,21.02,88,97,0.12,PH,1678820976
496,saint george,37.1041,-113.5841,16.91,43,100,1.54,US,1678820976
497,bimbo,4.2567,18.4158,27.21,57,62,2.43,CF,1678820977
498,kemijarvi,66.7131,27.4306,-5.94,96,100,2.26,FI,1678820977
499,christchurch,-43.5333,172.6333,12.17,85,5,0.51,NZ,1678820786
500,pangnirtung,66.1451,-65.7125,-14.58,93,100,1.81,CA,1678820978
501,conde,-7.2597,-34.9075,29.7,66,20,5.66,BR,1678820978
502,waterloo,43.4668,-80.5164,-1.41,77,75,10.8,CA,1678820979
503,camacha,33.0833,-16.3333,16.68,68,40,4.12,PT,1678820979
504,gunjur,13.2019,-16.7339,27.04,57,0,5.14,GM,1678820980
505,paamiut,61.994,-49.6678,-2.24,87,100,8.03,GL,1678820980
506,tucupita,9.0622,-62.051,33.78,26,100,3.76,VE,1678820981
507,badah,27.3332,68.0135,26.66,17,100,4.05,PK,1678820982
508,cuxhaven,53.8718,8.6909,3.31,65,40,10.29,DE,1678820982
509,estelle,29.8458,-90.1067,17.22,42,75,5.66,US,1678820983
510,maniitsoq,65.4167,-52.9,-3.98,71,97,5.27,GL,1678820983
511,perth,-31.9333,115.8333,18.52,94,0,0.0,AU,1678820524
512,enfield,-34.8526,138.6026,18.13,64,0,1.54,AU,1678820732
513,kattivakkam,13.2167,80.3167,28.05,79,0,4.12,IN,1678820984
514,warrnambool,-38.3833,142.4833,14.63,88,10,1.48,AU,1678820984
515,lazaro cardenas,17.9583,-102.2,28.95,54,0,4.21,MX,1678820985
516,saint-leu,-21.15,55.2833,25.48,91,64,2.03,RE,1678820985
517,zheleznodorozhnyy,55.7503,38.0042,5.24,77,77,6.5,RU,1678820986
518,kampot,10.6167,104.1833,22.03,73,13,2.64,KH,1678820986
519,guerrero negro,27.9769,-114.0611,21.21,53,0,5.93,MX,1678820987
520,san francisco,37.7749,-122.4194,17.93,87,100,22.12,US,1678820909
521,havelock,34.8791,-76.9013,12.19,40,3,4.47,US,1678820881
522,arawa,-6.2132,155.5367,24.48,91,100,0.48,PG,1678820989
523,zhezkazgan,47.8043,67.7144,0.62,79,100,1.97,KZ,1678820990
524,shu,43.5983,73.7614,8.3,66,0,2.13,KZ,1678820990
525,mezen,65.8522,44.24,-2.79,93,100,5.57,RU,1678820991
526,elizabeth city,36.2946,-76.2511,11.7,43,20,10.8,US,1678820996
527,bandarbeyla,9.4942,50.8122,25.92,75,22,5.34,SO,1678820996
528,lavrentiya,65.5833,-171.0,-23.23,88,29,5.32,RU,1678820997
529,anloga,5.7947,0.8973,28.49,78,45,6.42,GH,1678820998
530,monaghan,54.25,-6.9667,0.32,90,0,2.69,IE,1678820998
531,auki,-8.7676,160.7034,25.19,88,95,1.76,SB,1678820998
532,bambanglipuro,-7.95,110.2833,23.85,83,49,1.58,ID,1678820999
533,bathsheba,13.2167,-59.5167,29.34,58,20,8.23,BB,1678820999
534,bereda,43.2686,-7.5406,10.08,83,89,1.49,ES,1678821000
535,den helder,52.9599,4.7593,5.57,62,20,9.83,NL,1678821000
536,ha tinh,18.3333,105.9,18.55,93,53,0.68,VN,1678821001
537,kugulta,45.3636,42.3889,3.32,58,100,9.74,RU,1678821002
538,arys,42.4252,68.795,11.82,50,6,0.73,KZ,1678821002
539,tahta,26.7693,31.5021,19.42,35,53,4.08,EG,1678821003
540,komsomolskiy,40.4272,71.7189,9.4,76,0,2.06,UZ,1678821004
541,khasan,42.4308,130.6434,0.57,95,100,1.78,RU,1678821005
542,port macquarie,-31.4333,152.9167,18.83,94,15,2.5,AU,1678820776
543,lloydminster,53.2835,-110.0016,-6.77,90,100,7.69,CA,1678820847
544,otkaznoye,44.3264,43.8608,3.7,58,100,6.65,RU,1678821007
545,ishigaki,24.3448,124.1572,21.22,75,98,7.49,JP,1678821008
546,muros,42.7762,-9.0603,13.94,88,39,2.32,ES,1678821009
547,malakal,9.5334,31.6605,30.16,26,8,1.9,SS,1678821012
548,hovd,48.0056,91.6419,-1.86,46,0,0.6,MN,1678821012
549,solnechnyy,50.7214,136.6319,-14.2,96,100,2.04,RU,1678821013
550,nanakuli,21.3906,-158.1547,25.97,88,100,3.09,US,1678821014
551,adrar,20.5022,-10.0711,32.04,9,39,4.26,MR,1678821014
552,poum,-20.2333,164.0167,26.58,72,96,7.73,NC,1678821015
553,fonte boa,-2.4959,-66.2662,31.67,51,75,1.26,BR,1678821016
554,yenagoa,4.9247,6.2642,26.93,83,89,2.85,NG,1678821016
555,bonthe,7.5264,-12.505,26.99,76,2,3.92,SL,1678821017
556,chauk,20.8833,94.8167,25.37,65,100,3.72,MM,1678821017
557,scarborough,54.2797,-0.4044,2.76,87,100,1.4,GB,1678821018
558,aswan,24.0934,32.907,21.61,24,0,5.71,EG,1678821019
559,koungou,-12.7336,45.2042,27.84,74,75,3.09,YT,1678821019
560,kirando,-7.4167,30.6,22.77,82,100,1.41,TZ,1678821020
561,rundu,-17.9333,19.7667,22.96,36,5,3.12,NA,1678821021
562,goderich,43.7501,-81.7165,-3.94,78,100,11.04,CA,1678821022
563,fukue,32.6881,128.8419,15.2,70,0,7.39,JP,1678821024
564,bocas del toro,9.3333,-82.25,27.04,76,35,3.15,PA,1678821024
565,teluknaga,-6.0989,106.6381,27.02,94,75,4.63,ID,1678821026
566,impfondo,1.6381,18.0667,24.95,74,94,0.84,CG,1678821062
567,nabinagar,23.8917,90.9733,24.25,61,100,2.3,BD,1678821063
